UCL_CODE_2021,name,area_sqkm,population,lat,lon,state,chargers_5km,chargers_10km,chargers_20km
101001,Sydney,2194.1731,4698656,-33.84161577119394,150.96691131501072,New South Wales,1,9,44
102001,Canberra - Queanbeyan (Queanbeyan Part),28.7867,37511,-35.366427966647336,149.22022756860255,New South Wales,0,7,15
102002,Central Coast,332.9065,325255,-33.36590271056653,151.42889590889865,New South Wales,1,3,4
102003,Gold Coast - Tweed Heads (Tweed Heads Part),67.678,63721,-28.22237272038284,153.5295801783509,New South Wales,0,2,4
102004,Newcastle,296.9898,348539,-32.95096987524432,151.6772658310394,New South Wales,0,6,8
102005,Wollongong,224.4836,280153,-34.471428234497466,150.846091519943,New South Wales,4,11,15
111001,Albury - Wodonga (Albury Part),74.9112,53677,-36.05032242221273,146.94882711006437,Unspecified,2,4,5
111002,Coffs Harbour,77.9672,51069,-30.312302978046432,153.09573911807874,Unspecified,3,3,4
111003,Maitland (NSW),122.9001,89597,-32.75009779133812,151.58714135634807,Unspecified,0,0,6
112001,Armidale,30.2163,21312,-30.511801314920213,151.6660793680099,Unspecified,3,3,3
112002,Bathurst,54.5543,36230,-33.41512247424397,149.58260647922478,Unspecified,3,3,3
112003,Blue Mountains,79.1763,30049,-33.720882152376554,150.38004084388143,Unspecified,1,2,3
112004,Bowral - Mittagong,55.9023,23762,-34.47734077483966,150.44102395521026,Unspecified,2,2,2
112005,Cessnock,21.7753,23211,-32.829759518507224,151.3481584156723,Unspecified,0,0,0
112006,Dubbo,85.7616,38783,-32.24496849187918,148.61128454634823,Unspecified,2,2,2
112007,Echuca - Moama (Moama Part),28.019,6654,-36.09068590415897,144.7297943995226,Unspecified,1,1,1
112008,Forster - Tuncurry,32.6648,20554,-32.19290920984727,152.51990921913057,Unspecified,0,0,1
112009,Goulburn,55.5759,23963,-34.747942634855946,149.72776423573518,Unspecified,6,6,6
112010,Griffith,47.93,20799,-34.27554093610734,146.05578552786588,Unspecified,3,3,3
112011,Kurri Kurri,26.1116,20015,-32.81009554456026,151.4718413738409,Unspecified,0,0,1
112012,Lismore (NSW),40.251,27916,-28.818571519148023,153.29339160405817,Unspecified,1,1,1
112013,Mildura - Buronga (Buronga Part),5.8912,2400,-34.17576440881116,142.19659064941482,Unspecified,2,2,2
112014,Morisset - Cooranbong,43.7484,22150,-33.09530192017611,151.49014375041816,Unspecified,0,0,2
112015,Nowra - Bomaderry,37.9355,33583,-34.87792717042442,150.5987708637308,Unspecified,1,3,4
112016,Orange,56.8283,40127,-33.274766661666646,149.1000451337214,Unspecified,3,4,4
112017,Port Macquarie,43.8921,47793,-31.45253010082229,152.89441574423628,Unspecified,1,4,4
112018,Tamworth,38.2173,35415,-31.100129653986524,150.9138624824542,Unspecified,2,2,2
112019,Wagga Wagga,71.5314,49686,-35.14427697346109,147.3614659195127,Unspecified,3,3,3
113001,Ballina,15.6931,18532,-28.857743747159365,153.5663349090791,Unspecified,2,2,4
113002,Batemans Bay,22.3825,12263,-35.71808502896968,150.19278417366624,Unspecified,4,4,4
113003,Broken Hill,25.7209,17456,-31.963928677875813,141.4557869042185,Unspecified,1,1,1
113004,Byron Bay,21.8576,10538,-28.652204626437616,153.6024175086718,Unspecified,2,3,6
113005,Grafton,42.1678,17155,-29.7096546882896,152.932554229444,Unspecified,1,1,1
113006,Kempsey,47.0402,11073,-31.0773944045451,152.79934061516286,Unspecified,0,0,0
113007,Kiama,13.0378,14761,-34.65998454005958,150.8486003530197,Unspecified,0,1,7
113008,Lithgow,24.1517,11197,-33.48103661395562,150.15905742224376,Unspecified,2,2,2
113009,Medowie,14.4774,10019,-32.74010400254153,151.86984902046203,Unspecified,0,1,5
113010,Mudgee,23.7291,11563,-32.59654944814553,149.56941361829817,Unspecified,3,3,3
113011,Muswellbrook,13.2246,10901,-32.2733141022169,150.89075830730172,Unspecified,0,0,0
113012,Nelson Bay,11.4693,14593,-32.725731985424666,152.13420301264807,Unspecified,0,1,2
113013,Raymond Terrace,25.5358,14081,-32.77626347388444,151.74575592685136,Unspecified,2,3,9
113014,Singleton,17.2382,14229,-32.55275457303408,151.16330158738242,Unspecified,1,1,1
113015,St Georges Basin - Sanctuary Point,9.3471,11000,-35.09837951635386,150.61405682806998,Unspecified,0,0,0
113016,Taree,37.8066,18110,-31.893140156377065,152.4576179400633,Unspecified,1,2,2
113017,Ulladulla,21.665,14396,-35.35504423979582,150.46110667370397,Unspecified,0,0,0
113018,Yarrawonga - Mulwala (Mulwala Part),10.582,2389,-35.98889798033163,146.00016739183414,Unspecified,2,2,2
114001,Alstonville,4.5383,5182,-28.83834807184288,153.44156424850212,Unspecified,0,0,5
114002,Camden Haven,18.8362,8037,-31.639925183107987,152.79706751653896,Unspecified,0,1,2
114003,Casino,12.1923,9968,-28.86311411988447,153.04756403192695,Unspecified,1,1,1
114004,Cooma,17.7928,6447,-36.233363681558906,149.1335722274098,Unspecified,2,2,2
114005,Cootamundra,9.098,5732,-34.637953241018955,148.02623021204408,Unspecified,1,1,1
114006,Corowa - Wahgunyah (Corowa Part),24.962,5444,-36.00690489088124,146.37283306431445,Unspecified,0,0,0
114007,Cowra,23.8754,8254,-33.838584040514654,148.67270688563258,Unspecified,2,2,2
114008,Deniliquin,35.3535,6431,-35.54308059358335,144.95492722610945,Unspecified,1,1,1
114009,Estella,8.9939,6782,-35.06779925462161,147.35382453995092,Unspecified,1,3,3
114010,Forbes,22.6071,6837,-33.38475334561207,148.00646542160823,Unspecified,0,0,0
114011,Glen Innes,10.123,5184,-29.73715813488084,151.73071021633436,Unspecified,1,1,1
114012,Googong,6.9164,6224,-35.428050548734454,149.23418387326993,Unspecified,0,0,14
114013,Gunnedah,33.352,8338,-30.96581629877565,150.24042298653464,Unspecified,1,1,1
114014,Helensburgh,4.4292,6304,-34.18736702612699,150.9902959636846,Unspecified,0,0,4
114015,Inverell,19.9113,9654,-29.78144829033769,151.11402367137066,Unspecified,1,1,1
114016,Leeton,13.1093,7437,-34.55140104626915,146.4055337160381,Unspecified,0,0,0
114017,Lennox Head,6.0278,7483,-28.80299361726321,153.5897221536329,Unspecified,0,3,7
114018,Merimbula,22.6365,8220,-36.886012348307226,149.90961576245553,Unspecified,1,1,2
114019,Moree,18.8279,7070,-29.47786785557407,149.84106106697888,Unspecified,0,0,0
114020,Moss Vale,13.5625,8774,-34.549447928791416,150.3819728316901,Unspecified,0,0,4
114021,Murwillumbah,26.3283,9812,-28.332690241391187,153.40472568445395,Unspecified,0,0,1
114022,Nambucca Heads,13.6229,6668,-30.654430031184003,152.9889478469243,Unspecified,1,3,3
114023,Narrabri,18.1258,5499,-30.330124428897484,149.77455382318576,Unspecified,0,0,0
114024,Parkes,17.1642,9832,-33.14102936715009,148.17637908228755,Unspecified,1,1,1
114025,Pottsville,8.9595,7209,-28.37814686338909,153.5610645798255,Unspecified,0,1,1
114026,Richmond North,5.3625,5467,-33.583598478395885,150.706173635487,Unspecified,0,0,1
114027,Salamander Bay - Soldiers Point,5.5698,5605,-32.72434054600119,152.07574021316296,Unspecified,1,1,2
114028,Scone,11.0081,5013,-32.04350361533668,150.85827097075858,Unspecified,1,1,1
114029,Silverdale - Warragamba,6.1537,5364,-33.90028763192335,150.6117553161873,Unspecified,0,0,7
114030,South West Rocks,12.7605,5443,-30.896999055437785,153.0526908979116,Unspecified,0,0,0
114031,Summerland Point - Gwandalan,7.0648,6492,-33.13713578907249,151.5753122246509,Unspecified,0,1,2
114032,Tahmoor,4.6536,5014,-34.219690052023964,150.59367020656586,Unspecified,0,3,3
114033,Tumut,12.0833,6518,-35.309250318586344,148.2194582641466,Unspecified,0,0,0
114034,Wauchope,24.193,7982,-31.465272959597225,152.72752901320675,Unspecified,0,3,5
114035,Woolgoolga,9.1019,5797,-30.114996634272817,153.1919659107722,Unspecified,0,0,2
114036,Yamba,8.8924,6342,-29.43319417668782,153.33874673416534,Unspecified,0,1,2
114037,Yass,8.1577,5837,-34.83820106861124,148.91319506121738,Unspecified,4,4,5
114038,Young,11.4838,7712,-34.31972328494332,148.297291020681,Unspecified,1,1,1
115001,Aberdeen,4.6827,1872,-32.1678493946403,150.8934536655002,Unspecified,0,0,1
115002,Anna Bay - Boat Harbour,5.965,4241,-32.781443632123235,152.10167163100203,Unspecified,0,1,2
115003,Appin,2.7104,2869,-34.20192996250855,150.78943765481134,Unspecified,0,0,7
115004,Arrawarra,7.2412,1820,-30.06521465520417,153.19397081223977,Unspecified,0,0,1
115005,Balranald,3.5294,1063,-34.635763571123086,143.55873362199875,Unspecified,1,1,1
115006,Bangalow,1.8485,2260,-28.68578021806881,153.5240161720514,Unspecified,1,4,7
115007,Bargo,4.4939,3314,-34.289117256334194,150.57652510519887,Unspecified,0,2,3
115008,Barham - Koondrook (Barham Part),4.224,1134,-35.623459224572535,144.13188763321438,Unspecified,0,0,0
115009,Barooga,5.6934,1752,-35.90621758551666,145.69133294840077,Unspecified,0,0,0
115010,Barraba,2.6989,1035,-30.384045240649726,150.6067578808885,Unspecified,0,0,0
115011,Basin View,3.8768,1583,-35.08764197010913,150.56196619838474,Unspecified,0,0,0
115012,Batlow,2.8616,1022,-35.52049324692028,148.14660077508444,Unspecified,0,0,0
115013,Bega,6.7675,4368,-36.6796020373496,149.83815851761153,Unspecified,1,1,1
115014,Bellingen,3.6139,3201,-30.45178577550765,152.8993313474716,Unspecified,0,0,0
115015,Bermagui,9.2223,1798,-36.43201279509539,150.06317521909065,Unspecified,0,0,1
115016,Berridale,2.2642,1030,-36.368305164757466,148.83062986568032,Unspecified,0,0,1
115017,Berry,3.0097,2467,-34.7735450607839,150.68550538922543,Unspecified,1,3,4
115018,Bingara,3.9256,1028,-29.870020278379624,150.56565561130978,Unspecified,0,0,0
115019,Blackheath,15.9555,4479,-33.62587887203845,150.29546774119717,Unspecified,0,1,3
115020,Blayney,5.3696,2997,-33.52959116383314,149.25048291216766,Unspecified,0,0,0
115021,Bombala,5.1846,1136,-36.90978468331197,149.23839220760087,Unspecified,0,0,0
115022,Bonny Hills,2.7491,2825,-31.58830878488268,152.83757469147534,Unspecified,0,0,5
115023,Boorowa,6.0795,1402,-34.44437792013104,148.72052210763275,Unspecified,1,1,1
115024,Bourke,6.5338,1535,-30.09272132560117,145.93707064524068,Unspecified,1,1,1
115025,Bowen Mountain,0.9065,1498,-33.57589472459059,150.62526963623947,Unspecified,0,0,2
115026,Braidwood,4.8704,1414,-35.44151517672167,149.7947010708286,Unspecified,0,0,0
115027,Branxton,3.7413,2878,-32.656534805418055,151.35577931033208,Unspecified,0,0,1
115028,Broulee - Mossy Point,5.7405,2502,-35.84259319714912,150.17513329128033,Unspecified,0,0,4
115029,Brunswick Heads,4.0461,1686,-28.553049860622217,153.54772143247584,Unspecified,1,3,5
115030,Bulahdelah,2.5821,1163,-32.40657640106961,152.2083898541173,Unspecified,0,0,0
115031,Bundanoon,9.6503,2642,-34.65810396047496,150.29756545495007,Unspecified,0,2,2
115032,Bundeena,1.1786,2103,-34.08545479080741,151.15168552131547,Unspecified,0,3,10
115033,Bungendore,5.0679,3935,-35.25244528342502,149.4425179854419,Unspecified,1,1,1
115034,Buxton (NSW),1.588,1741,-34.25763064038748,150.53219617614113,Unspecified,0,0,3
115035,Calala,3.2268,3930,-31.13301697303529,150.94963121496122,Unspecified,1,2,2
115036,Callala Bay,5.072,3076,-35.00712931878768,150.70259139224925,Unspecified,0,0,0
115037,Cambewarra Village,0.995,1211,-34.82249532064746,150.55874974406078,Unspecified,1,3,4
115038,Canowindra,4.204,1451,-33.56257980205314,148.66511870111128,Unspecified,0,0,0
115039,Cobar,9.5893,3369,-31.49926775945584,145.83614388179524,Unspecified,1,1,1
115040,Colo Vale,4.3899,1528,-34.40243251354916,150.48549688475256,Unspecified,0,2,4
115041,Condobolin,8.5865,2579,-33.08552637651823,147.14739551913908,Unspecified,0,0,0
115042,Coolamon,5.4419,1744,-34.816373621550454,147.20065202395216,Unspecified,1,1,2
115043,Coonabarabran,11.0219,2387,-31.2729522351777,149.2765328945988,Unspecified,1,1,1
115044,Coonamble,10.1731,2353,-30.962259262442352,148.3808500706154,Unspecified,0,0,0
115045,Coraki,3.0021,1155,-28.99302064059885,153.28022400582725,Unspecified,0,0,1
115046,Corindi Beach,2.3846,1649,-30.02799554472559,153.19784819677042,Unspecified,0,0,0
115047,Crookwell,4.9173,2098,-34.459832810245466,149.46674067325148,Unspecified,0,0,0
115048,Culburra Beach - Orient Point,7.0568,3580,-34.91894382923509,150.7595179008319,Unspecified,0,0,4
115049,Culcairn,2.5325,1112,-35.66563770318086,147.04249291395695,Unspecified,0,0,0
115050,Cumbalum,1.7283,2011,-28.82222362501428,153.53528536148625,Unspecified,1,3,4
115051,Dalmeny,5.4353,2194,-36.16846512120318,150.114769860029,Unspecified,0,1,2
115052,Denman,3.2542,1547,-32.38893114122616,150.6814212927398,Unspecified,0,0,1
115053,Dorrigo,4.2195,1046,-30.340704005249734,152.70968334675425,Unspecified,0,0,0
115054,Douglas Park,5.9437,1092,-34.185614832135904,150.71348951761632,Unspecified,0,1,5
115055,Dungog,6.4834,2169,-32.405898240915725,151.75052330345795,Unspecified,0,0,0
115056,Eden,8.161,3227,-37.05370484715587,149.90447702744018,Unspecified,1,2,3
115057,Evans Head,9.4322,2894,-29.110925901113024,153.42091884305282,Unspecified,0,0,1
115058,Fingal Bay,1.118,1635,-32.747115888193306,152.16722478804112,Unspecified,0,0,1
115059,Finley,5.9822,1864,-35.64468586634653,145.5711977823781,Unspecified,0,0,0
115060,Forest Hill (NSW),6.0699,2835,-35.15616033636301,147.4614007448896,Unspecified,0,2,3
115061,Frederickton,1.5209,1195,-31.03572586114111,152.8740614313384,Unspecified,0,0,0
115062,Freemans Reach,3.7144,1343,-33.56504202260601,150.7811667378386,Unspecified,0,0,1
115063,Galston,0.527,1175,-33.65029922299596,151.0430478584187,Unspecified,0,4,22
115064,Gerringong,2.6665,4565,-34.74266510348687,150.82728806451146,Unspecified,0,0,6
115065,Gilgandra,10.9255,2417,-31.70442299310648,148.65150572333755,Unspecified,0,0,0
115066,Glossodia,8.0675,2548,-33.534570955303366,150.7697588885921,Unspecified,0,0,0
115067,Gloucester,5.8359,2469,-32.0147938687856,151.96037160999933,Unspecified,0,0,0
115068,Greenwell Point,2.667,1245,-34.91075168715986,150.7304218623552,Unspecified,0,0,4
115069,Grenfell,10.9719,2022,-33.8977849440788,148.1553778896578,Unspecified,0,0,0
115070,Greta,5.1063,3230,-32.67582002477378,151.39243571932008,Unspecified,0,0,0
115071,Gulgong,4.042,2057,-32.36181236286264,149.53418026489038,Unspecified,0,0,0
115072,Gulmarrad,9.2572,1844,-29.49188485933649,153.2305100067843,Unspecified,0,2,3
115073,Gundagai,9.0449,1970,-35.064844280627405,148.1079266043584,Unspecified,0,1,2
115074,Guyra,7.7244,2077,-30.22484071884908,151.67279230010155,Unspecified,0,0,0
115075,Hallidays Point - Black Head,3.5175,1106,-32.07051392418683,152.53439812107436,Unspecified,0,0,3
115076,Harden - Murrumburrah,5.832,1789,-34.55670255937207,148.36229911946714,Unspecified,1,1,1
115077,Harrington,3.1929,3240,-31.877603407656167,152.66966062874263,Unspecified,0,0,1
115078,Hawks Nest ,13.8335,1413,-32.6610251205762,152.18435530906984,Unspecified,0,0,1
115079,Hay,10.731,2208,-34.51345635074849,144.8382745449803,Unspecified,1,1,1
115080,Hill Top,2.2634,2262,-34.35379937587989,150.49287087266694,Unspecified,0,0,4
115081,Hillston,6.3583,1149,-33.48905446674869,145.5305308502819,Unspecified,0,0,0
115082,Holbrook,3.82,1251,-35.72103169684087,147.31787810598243,Unspecified,2,2,2
115083,Howlong,4.0465,2654,-35.98283575225063,146.63437286151958,Unspecified,0,0,1
115084,Iluka,5.5661,1764,-29.40589608835901,153.35335572436492,Unspecified,0,0,2
115085,Jamberoo,1.4114,1229,-34.645446205785255,150.77676758952876,Unspecified,0,0,5
115086,Jindabyne,2.0513,2233,-36.4185026903236,148.6185948757451,Unspecified,1,1,1
115087,Jindera,3.2855,1389,-35.95679427744036,146.891456226521,Unspecified,0,1,5
115088,Junction Hill,2.3406,1515,-29.639471281754712,152.92517469808422,Unspecified,0,1,1
115089,Junee,20.8145,4882,-34.861047907414594,147.5716055021469,Unspecified,0,0,0
115090,Kandos,4.4775,1208,-32.85841455172954,149.9752019096082,Unspecified,0,1,1
115091,Karuah,3.0402,1451,-32.65107370395323,151.95974656030145,Unspecified,1,1,2
115092,Kootingal,2.2163,1862,-31.05322658480496,151.05530544783133,Unspecified,0,0,2
115093,Kurrajong,2.229,1159,-33.554198009467726,150.66810640293744,Unspecified,0,0,0
115094,Kyogle,5.6379,2804,-28.62229582335064,152.99706887764614,Unspecified,0,0,0
115095,Lake Cargelligo,6.0893,1169,-33.291076141636715,146.37677249063637,Unspecified,0,0,0
115096,Lake Cathie,9.3406,4049,-31.55695230837296,152.84400456571143,Unspecified,0,0,5
115097,Lemon Tree Passage,1.8194,2680,-32.733638587866245,152.03243151726886,Unspecified,1,1,3
115098,Lightning Ridge,2.9268,1396,-29.42870054215808,147.97870068885365,Unspecified,0,0,0
115099,Macksville,11.3702,3023,-30.71118015252601,152.91645485191373,Unspecified,2,2,3
115100,Maclean,3.6455,2711,-29.457085565958486,153.20510208678775,Unspecified,2,2,3
115101,Malua Bay,4.4412,2372,-35.786683423470684,150.226587073918,Unspecified,0,4,4
115102,Manilla,3.2074,2014,-30.748951918230446,150.72354654343582,Unspecified,0,0,0
115103,Merriwa,3.8132,1042,-32.14059129610974,150.36081937681442,Unspecified,0,0,0
115104,Milton,3.1512,1538,-35.318484794956234,150.43507247156364,Unspecified,0,0,0
115105,Molong,3.8336,1621,-33.09286320368263,148.86195835573722,Unspecified,0,0,0
115106,Moruya,6.301,2762,-35.91392143779111,150.0786114078005,Unspecified,0,0,0
115107,Mullumbimby,4.2217,3589,-28.55397445958245,153.48930146953498,Unspecified,1,1,5
115108,Murrumbateman,9.0224,2111,-34.97292521059618,149.00745459439813,Unspecified,1,1,5
115109,Narooma,8.047,3395,-36.2071678391523,150.12682801051025,Unspecified,1,1,2
115110,Narrandera,7.8069,3783,-34.743606659754896,146.55302664767365,Unspecified,1,1,1
115111,Narromine,10.4355,3507,-32.22582639935266,148.23652639071523,Unspecified,0,0,0
115112,North Rothbury,3.4167,2283,-32.677621242815285,151.3579265590384,Unspecified,0,0,1
115113,Nyngan,11.6282,1761,-31.55884351778651,147.1980736348806,Unspecified,1,1,1
115114,Oberon,7.1806,2540,-33.70312715298199,149.86120823247433,Unspecified,0,0,0
115115,Ocean Shores,10.5118,4818,-28.519935053211288,153.5366553307608,Unspecified,0,1,5
115116,Old Bar,5.3435,4485,-31.966146308544086,152.58355984614815,Unspecified,0,0,2
115117,Old Erowal Bay,1.1767,1719,-35.0888863319382,150.6477534531418,Unspecified,0,0,0
115118,Pambula,7.5931,1627,-36.92959329051197,149.8853630647786,Unspecified,0,1,3
115119,Picton,4.4049,3847,-34.17503286816385,150.61322117361527,Unspecified,1,1,3
115120,Pitt Town,5.2462,3325,-33.57538290303355,150.86450159494802,Unspecified,0,0,3
115121,Portland (NSW),4.7269,1841,-33.35213052129586,149.98481570660977,Unspecified,0,0,0
115122,Quirindi,9.78,2602,-31.508245072578795,150.6812614380182,Unspecified,0,0,0
115123,Robertson,3.3152,1476,-34.58740777573484,150.60096157859914,Unspecified,0,0,0
115124,Sandy Beach - Emerald Beach,7.3584,4459,-30.15748710519724,153.18960415422143,Unspecified,0,1,3
115125,Shoalhaven Heads,4.2675,3264,-34.85027663804927,150.74090872420592,Unspecified,0,1,4
115126,Skennars Head,0.8228,1053,-28.82812685845078,153.6022483091652,Unspecified,0,2,4
115127,Smiths Lake,5.2453,1332,-32.3728925039494,152.50358765036975,Unspecified,0,0,0
115128,South Golden Beach,2.5033,2219,-28.49635488623485,153.5431757388491,Unspecified,0,1,5
115129,Stanwell Park,3.2243,1713,-34.23867412410344,150.97855116698594,Unspecified,0,1,4
115130,Sussex Inlet,10.9311,3659,-35.17213321012255,150.58423067985112,Unspecified,0,0,0
115131,Tanilba Bay,3.3053,4182,-32.732583304230644,152.00223537734144,Unspecified,0,2,3
115132,Tathra,6.8041,1523,-36.71632462722036,149.97202270457677,Unspecified,0,0,2
115133,Tea Gardens,1.9817,2837,-32.65966577936532,152.15147302332417,Unspecified,0,1,2
115134,Temora,16.1066,4016,-34.44195699799812,147.5257370647712,Unspecified,1,1,1
115135,Tenterfield,7.2653,2826,-29.05016527921304,152.01886908274346,Unspecified,1,1,1
115136,The Oaks,1.9297,2171,-34.08026292160326,150.56941998039625,Unspecified,0,0,1
115137,Thirlmere,7.31,4118,-34.209433538405385,150.56486237940493,Unspecified,0,1,3
115138,Thrumster,5.9061,2115,-31.46591858421934,152.83184022099735,Unspecified,3,4,4
115139,Tocumwal,18.5863,2587,-35.80812894776576,145.5832860207965,Unspecified,0,0,0
115140,Tomakin,3.8804,1233,-35.82217614767693,150.18910676803927,Unspecified,0,0,4
115141,Tumbarumba,6.2643,1505,-35.77251394538811,148.00766899933276,Unspecified,0,0,0
115142,Tuross Head,3.726,2292,-36.05392333498825,150.1310459653753,Unspecified,0,0,1
115143,Uralla,8.2332,2385,-30.64210597895725,151.49314014721062,Unspecified,0,0,0
115144,Urunga,5.3632,2731,-30.49761156874082,153.0107544423074,Unspecified,0,0,1
115145,Valla Beach,2.1837,1455,-30.595050584152588,153.00720033232966,Unspecified,0,1,3
115146,Vincentia,3.3417,2705,-35.07224222186176,150.68161711592975,Unspecified,0,0,0
115147,Vincentia West,0.9218,1162,-35.072926059185576,150.6558785738594,Unspecified,0,0,0
115148,Walcha,3.6711,1369,-30.982689267377296,151.59407726447347,Unspecified,0,0,0
115149,Walgett,5.7855,1377,-30.025911674878856,148.12028556639575,Unspecified,1,1,1
115150,Wallacia,1.6786,1081,-33.86887233284769,150.64406792365764,Unspecified,0,0,8
115151,Wallerawang,5.5764,2079,-33.40279237535142,150.0758910416013,Unspecified,0,0,2
115152,Warialda,3.5224,1130,-29.53876212192312,150.57452841820935,Unspecified,0,0,0
115153,Warren,2.9812,1365,-31.701347800642125,147.83356135528453,Unspecified,0,0,0
115154,Wee Waa,4.5377,1571,-30.22282849087857,149.4414155334277,Unspecified,0,0,0
115155,Wellington,9.3292,4581,-32.556417041832226,148.94923342297648,Unspecified,1,1,1
115156,Wentworth,4.6048,1305,-34.10265635301364,141.91875893917052,Unspecified,0,0,0
115157,Werris Creek,5.4511,1349,-31.345891153261995,150.64878868375396,Unspecified,0,0,0
115158,West Wyalong,8.2726,2698,-33.91906265245981,147.2072728954637,Unspecified,1,1,1
115159,Wilberforce,1.7281,1817,-33.55447446341884,150.84251915009244,Unspecified,0,0,1
115160,Wilton,2.9324,2959,-34.23053212356912,150.6864947211813,Unspecified,0,3,3
115161,Wingham,7.2557,4556,-31.868547924741204,152.36594219339443,Unspecified,0,0,2
115162,Wollongbar,2.9112,2988,-28.82326876824312,153.42028436301717,Unspecified,0,0,5
115163,Wyee,5.5092,1980,-33.1792552821443,151.47999883599778,Unspecified,0,1,3
115164,Wyee Point,0.95,1352,-33.145507437693404,151.52209065317257,Unspecified,0,0,2
115165,Yenda,3.0959,1070,-34.249445040977925,146.19535377751671,Unspecified,0,0,3
121001,Adelong (L),2.6267,856,-35.308642831054534,148.063833941749,Unspecified,0,0,0
121002,Baradine (L),3.189,586,-30.947916229677155,149.0621213661891,Unspecified,0,0,0
121003,Bawley Point (L),2.2931,716,-35.514728577114475,150.39303119393284,Unspecified,0,0,0
121004,Beechwood (L),9.9177,914,-31.440310945284104,152.67127839504238,Unspecified,0,0,3
121005,Belimbla Park (L),3.6613,576,-34.08412096425705,150.53975897859092,Unspecified,0,0,1
121006,Berrara - Cudmirrah (L),1.3536,612,-35.20240087435992,150.5526895915429,Unspecified,0,0,0
121007,Berrigan (L),9.1952,957,-35.66711456475555,145.81840140996815,Unspecified,0,0,0
121008,Boggabilla (L),4.2486,529,-28.60760820328969,150.35931104023956,Unspecified,0,0,0
121009,Boggabri (L),5.8304,885,-30.709703834744115,150.04507636864594,Unspecified,0,0,0
121010,Boomerang Beach - Blueys Beach (L),4.7593,668,-32.34578954991646,152.53186280475785,Unspecified,0,0,0
121011,Bowraville (L),2.2294,941,-30.65025645399619,152.85384929366407,Unspecified,0,2,3
121012,Brandy Hill (L),6.3434,852,-32.68955963708225,151.6968501305581,Unspecified,0,1,3
121013,Brewarrina (L),4.8359,743,-29.963133139620112,146.86501558589387,Unspecified,1,1,1
121014,Broadwater (L),0.9863,524,-29.01554036417578,153.42965964927453,Unspecified,0,0,0
121015,Brooklyn (L),2.158,737,-33.54641076758423,151.21643217169873,Unspecified,0,0,7
121016,Burringbar (L),1.7387,555,-28.439402256013526,153.47019573489604,Unspecified,0,0,2
121017,Catherine Hill Bay (L),0.9832,820,-33.162027525997864,151.6264185908119,Unspecified,0,1,2
121018,Clarence Town (L),2.4892,878,-32.58734766167192,151.78129319391988,Unspecified,0,0,2
121019,Clifton Grove (L),13.5933,701,-33.24398106012016,149.15111039795556,Unspecified,0,3,4
121020,Clunes (L) (NSW),1.003,564,-28.72912471637569,153.4065838529163,Unspecified,0,0,4
121021,Coleambally (L),3.2856,566,-34.800268855927634,145.88953734821908,Unspecified,0,0,0
121022,Coolah (L),2.8295,722,-31.824078340069843,149.7147533706403,Unspecified,0,0,0
121023,Coomba Park (L),3.0272,587,-32.23959310191454,152.4666068244199,Unspecified,0,0,1
121024,Coutts Crossing (L),5.0358,553,-29.82227645391643,152.89572072955806,Unspecified,0,0,1
121025,Cowan (L),0.3968,599,-33.58932786316972,151.17032691521516,Unspecified,1,1,16
121026,Crescent Head (L),1.1606,978,-31.19090287498,152.97545724778846,Unspecified,0,0,0
121027,Cudgen (L),0.3819,616,-28.2620989915941,153.55851555677827,Unspecified,0,1,3
121028,Cunjurong Point - Manyana (L),2.7216,785,-35.26071594936355,150.5097072860842,Unspecified,0,0,0
121029,Curlewis (L),4.9294,605,-31.11649748809349,150.26101987002585,Unspecified,0,0,1
121030,Darlington Point (L),4.3483,868,-34.56533623122412,146.00467989400198,Unspecified,0,0,0
121031,Diamond Beach (L),4.4692,1012,-32.04029220645237,152.53356170548335,Unspecified,0,0,3
121032,Dunedoo (L),4.2189,725,-32.018273019881875,149.3913247112013,Unspecified,0,0,0
121033,Dunoon (L),0.5862,513,-28.68574344979888,153.31668350148195,Unspecified,0,0,2
121034,East Jindabyne (L),8.823,907,-36.39437813366498,148.63817648637053,Unspecified,1,1,1
121035,Ellalong (L),1.9901,1125,-32.91595719983299,151.31274741388555,Unspecified,0,0,1
121036,Emerald Beach West (L),7.8804,1427,-30.17419524297208,153.1619462933793,Unspecified,1,1,4
121037,Erowal Bay (L),1.4688,791,-35.10614780787487,150.6585613574259,Unspecified,0,0,0
121038,Eugowra (L),4.5142,601,-33.42820594454749,148.3644569444559,Unspecified,0,0,0
121039,Ewingsdale (L),5.3241,733,-28.64780179230942,153.56466843131264,Unspecified,2,4,6
121040,Firgrove (L),5.1331,511,-32.28817140022224,148.71035558951476,Unspecified,0,0,2
121041,Ganmain (L),2.6683,592,-34.79472463753692,147.04094418373907,Unspecified,1,1,2
121042,Gerroa (L),0.9876,553,-34.77280590766596,150.81516094742253,Unspecified,0,0,3
121043,Glenorie (L),0.4235,684,-33.599337350039825,151.00850207169134,Unspecified,0,0,11
121044,Glenreagh (L),2.1822,562,-30.05219052230765,152.9852319122418,Unspecified,0,0,0
121045,Green Point (L),0.9858,522,-32.24944054999215,152.51824669857712,Unspecified,0,0,0
121046,Gundaroo (L),0.8938,503,-35.02508961262829,149.26721033979177,Unspecified,0,0,0
121047,Gunning (L),1.5214,604,-34.783154654028,149.26683085701,Unspecified,1,1,1
121048,Hallidays Point - West (L),6.1506,500,-32.070999450203246,152.50496234063672,Unspecified,0,0,3
121049,Hanwood (L),0.6165,641,-34.33117331045797,146.04398011883657,Unspecified,3,3,3
121050,Hastings Point (L),0.9717,661,-28.36389412238552,153.57426621694822,Unspecified,1,1,1
121051,Henty (L),3.0381,940,-35.522532479028975,147.03557627546826,Unspecified,0,0,0
121052,Huskisson (L),1.272,825,-35.04178077151767,150.67135957846608,Unspecified,0,0,0
121053,Jerilderie (L),7.8564,747,-35.36119451767995,145.72705037742872,Unspecified,1,1,1
121054,Jilliby (L),4.5315,777,-33.23607106185442,151.40723397191465,Unspecified,0,2,3
121055,Kalaru (L),6.7876,668,-36.73437959691395,149.94406762481503,Unspecified,0,0,2
121056,Kendall (L),3.6412,890,-31.62739649493614,152.7117036007243,Unspecified,1,1,1
121057,Killingworth (L),0.5835,683,-32.9357395398344,151.5594225849533,Unspecified,0,1,6
121058,King Creek (L),17.4076,1863,-31.49237553367973,152.75656950667607,Unspecified,0,3,5
121059,Kings Point (L),2.6264,609,-35.37133663497383,150.44456848431156,Unspecified,0,0,0
121060,Kingswood (L),5.2199,980,-31.165483996020868,150.908526606764,Unspecified,0,2,2
121061,Kitchener (L),0.611,554,-32.87596789183079,151.37009338216913,Unspecified,0,0,0
121062,Kurrajong Heights (L),1.0991,905,-33.52581804557921,150.6267228082535,Unspecified,0,0,0
121063,Lake Conjola (L),1.1386,656,-35.269581278842175,150.48579707574729,Unspecified,0,0,0
121064,Lake Tabourie (L),2.7191,670,-35.4387047580967,150.402934791918,Unspecified,0,0,0
121065,Lawrence (L),6.1736,925,-29.489141232009167,153.10184518946485,Unspecified,0,1,3
121066,Lochinvar (L),1.0356,508,-32.701319880684444,151.4534314449477,Unspecified,0,0,0
121067,Lockhart (L),2.1523,830,-35.223045564090306,146.7152712710597,Unspecified,0,0,0
121068,Long Beach - Maloneys Beach (L),10.551,2231,-35.692074517774984,150.22646521324128,Unspecified,2,4,4
121069,Louth Park (L),2.3992,767,-32.77687086194812,151.5526899379828,Unspecified,0,0,6
121070,Maianbar (L),0.2931,539,-34.08021297462386,151.12857256131926,Unspecified,0,3,14
121071,Manildra (L),2.583,529,-33.183272338356765,148.69612916293815,Unspecified,0,0,0
121072,Marulan (L),2.7392,819,-34.709734002749414,150.00120778982475,Unspecified,2,2,2
121073,Mathoura (L),2.3909,691,-35.81408811118316,144.9002262253634,Unspecified,0,0,0
121074,Medlow Bath (L),3.1061,556,-33.679166627421246,150.28202026553154,Unspecified,1,2,3
121075,Menangle (L),0.2988,656,-34.13048538238559,150.73940883535136,Unspecified,0,2,6
121076,Millfield (L),1.5339,1071,-32.89263264074346,151.26293088778155,Unspecified,0,0,1
121077,Millthorpe (L),0.9,750,-33.44601456003251,149.18285687038224,Unspecified,0,0,3
121078,Minmi (L),2.4419,686,-32.88682499552424,151.61302210887737,Unspecified,1,4,8
121079,Modanville (L),2.3254,526,-28.71641137213797,153.2983843141043,Unspecified,0,0,1
121080,Moonee Beach (L),3.5394,996,-30.20456498514749,153.15340829540096,Unspecified,1,2,4
121081,Moonee Beach West (L),7.4114,583,-30.19226328433527,153.13658457360563,Unspecified,1,2,4
121082,Moruya Heads (L),12.3761,1125,-35.92833829540478,150.13968291554903,Unspecified,0,0,0
121083,Mount Victoria (L),2.13,913,-33.58639183715745,150.25023319221324,Unspecified,0,0,4
121084,Mulgoa (L),1.6359,844,-33.840395776017395,150.65370629946457,Unspecified,0,3,13
121085,Murrays Beach (L),1.14,1022,-33.11768492779333,151.61802091373468,Unspecified,1,1,2
121086,Murrurundi (L),2.4306,822,-31.764321279790867,150.83213568861734,Unspecified,0,0,0
121087,Nabiac (L),2.0303,656,-32.098198648096904,152.38650609441973,Unspecified,1,1,2
121088,New Berrima (L),3.3855,598,-34.50807660011198,150.33293328447834,Unspecified,0,0,4
121089,Nords Wharf (L),1.1965,895,-33.13516361112055,151.60856713524774,Unspecified,0,1,2
121090,Nowra Hill (L),6.6298,828,-34.911565372903446,150.5574448504738,Unspecified,0,1,3
121091,Nunderi (L),3.8271,696,-28.32206452824481,153.45967332017452,Unspecified,0,0,3
121092,Oakdale (L),5.5769,1179,-34.074110715166405,150.4981816599694,Unspecified,0,0,1
121093,Paxton (L),1.5111,1160,-32.90084456556386,151.28902529784,Unspecified,0,0,1
121094,Peak Hill (L),3.6436,768,-32.73112849715505,148.1839424201465,Unspecified,0,0,0
121095,Putta Bucca - Bombira (L),11.3966,693,-32.57327583575445,149.59711317946122,Unspecified,3,3,3
121096,Red Head (L),2.5539,798,-32.057045236585886,152.5357531360374,Unspecified,0,0,3
121097,Repton (L),8.9417,667,-30.44281132934012,153.0367431627818,Unspecified,0,0,2
121098,Richmond Hill (L),6.6272,850,-28.78920520900633,153.34696618048852,Unspecified,0,1,3
121099,Rylstone (L),2.0546,624,-32.79913242380785,149.9710999883624,Unspecified,1,1,1
121100,Safety Beach (L),2.1922,1103,-30.094952267698783,153.1939075265945,Unspecified,0,0,1
121101,Salt Ash (L),18.7063,1103,-32.7843292463882,151.9239340893962,Unspecified,0,1,5
121102,Scotts Head (L),1.2851,994,-30.747651498370807,152.99321086126406,Unspecified,0,2,3
121103,Smithtown - Gladstone (L),3.0847,1021,-31.01998474390249,152.9475403203246,Unspecified,0,0,0
121104,Stroud (L),3.037,738,-32.403072247246875,151.9650583476915,Unspecified,0,0,0
121105,Stuarts Point (L),0.6872,656,-30.821988980252392,152.99151762608597,Unspecified,0,0,2
121106,Tallwoods Village (L),2.4392,993,-32.05535437849651,152.5104264832072,Unspecified,0,0,3
121107,The Rock (L),4.6353,953,-35.271445514553285,147.10974997846574,Unspecified,0,0,0
121108,Tinonee (L),0.9539,840,-31.93683844369449,152.41384217904638,Unspecified,0,2,3
121110,Townsend (L),3.2202,991,-29.46620489029041,153.22073454203013,Unspecified,2,2,3
121111,Trangie (L),1.9766,768,-32.03430317398898,147.98179033668728,Unspecified,0,0,0
121112,Uranquinty (L),1.2288,767,-35.19128737408154,147.2467610973491,Unspecified,0,0,3
121113,Walla Walla (L),1.3297,532,-35.76131198849387,146.90223716606516,Unspecified,0,0,0
121114,Wallabi Point (L),0.3946,884,-31.99263606772344,152.56826848510755,Unspecified,0,0,2
121115,Wallaga Lake (L),4.8895,651,-36.37785487663584,150.06988897543542,Unspecified,0,1,2
121116,Wallalong (L),2.0561,963,-32.68878085535186,151.65344846351596,Unspecified,0,0,2
121117,Wardell (L),1.4906,662,-28.95174150657288,153.4638733906868,Unspecified,0,0,2
121118,Waterfall (L),0.3848,518,-34.132474382426,150.9928070292696,Unspecified,0,0,7
121119,Waterview Heights (L),6.6559,872,-29.66676579366325,152.8716780979146,Unspecified,0,1,1
121120,Wilcannia (L),2.7965,539,-31.559136380377097,143.37396681040337,Unspecified,1,1,1
121121,Wingello (L),3.2623,510,-34.692893059164646,150.15980416076675,Unspecified,0,0,4
121122,Wongarbon (L),4.8846,665,-32.32843087026397,148.76648227049162,Unspecified,0,0,2
121123,Woodburn (L),1.7525,678,-29.07428618515542,153.34291307444457,Unspecified,0,1,1
121124,Wooli (L),2.1076,503,-29.86026704418132,153.26377547605995,Unspecified,0,0,0
121125,Woombah (L),4.9042,935,-29.356802123295697,153.2741727957063,Unspecified,0,1,2
121126,Wooroowoolgan (L),0.6058,593,-28.86207612504165,153.01597733766627,Unspecified,1,1,1
121127,Yanderra (L),2.7434,702,-34.31734616909245,150.5714077773518,Unspecified,0,2,5
121128,Yerrinbool (L),1.0485,974,-34.36608634908643,150.54138955096985,Unspecified,0,0,4
122054,Euston (L),1.4593,500,-34.577718912207594,142.7411096773394,Unspecified,1,1,1
122098,Nimbin (L),1.8788,500,-28.59881064545439,153.22751955925656,Unspecified,0,0,0
201001,Melbourne,2880.5725,4585537,-37.89213262611415,145.07671146011714,Victoria,6,25,62
203001,Ballarat,132.2364,105348,-37.56649445220462,143.8416987029917,Victoria,5,7,8
203002,Bendigo,162.3864,100649,-36.7566807807683,144.28514225094298,Victoria,5,5,6
203003,Geelong,165.5844,180239,-38.16570798498076,144.35732859040448,Victoria,6,10,16
211001,Albury - Wodonga (Wodonga Part),54.1941,37839,-36.12245902426521,146.88230209630683,Unspecified,1,3,6
211002,Melton,57.1001,76346,-37.69402555456404,144.58082762578297,Unspecified,3,3,11
212001,Bacchus Marsh,18.6125,21692,-37.668229647927134,144.42707993287067,Unspecified,0,0,3
212002,Echuca - Moama (Echuca Part),25.8493,13764,-36.13670791312118,144.74734967528178,Unspecified,1,1,1
212003,Mildura - Buronga (Mildura Part),41.3432,35652,-34.19353987773992,142.15345672007857,Unspecified,2,2,2
212004,Ocean Grove - Barwon Heads,20.4881,22035,-38.26218866073976,144.52244364146694,Unspecified,1,2,10
212005,Shepparton - Mooroopna,62.3414,49862,-36.38593866077952,145.40396628107234,Unspecified,2,2,3
212006,Sunbury,30.7094,38010,-37.57169360009764,144.72333901782798,Unspecified,1,1,10
212007,Torquay - Jan Juc,38.9895,22998,-38.31169316222316,144.31854480824913,Unspecified,1,3,11
212008,Traralgon,29.0976,27628,-38.19627250172525,146.5258442628395,Unspecified,3,3,3
212009,Warrnambool,52.4252,32894,-38.37549334721387,142.48349670157106,Unspecified,3,3,3
213001,Bairnsdale,25.9948,13734,-37.82305814494274,147.61832026381882,Unspecified,5,5,5
213002,Castlemaine,34.6881,10577,-37.06959068573322,144.2135309624765,Unspecified,1,2,2
213003,Colac,22.8529,12348,-38.34965952425846,143.58721160083545,Unspecified,1,1,1
213004,Drouin,21.9894,14764,-38.12323990536926,145.84570904963635,Unspecified,0,0,1
213005,Drysdale - Clifton Springs,18.8792,16199,-38.17301783025184,144.56177159368968,Unspecified,1,2,10
213006,Gisborne,20.8226,10999,-37.48049714797373,144.59266827791032,Unspecified,0,1,3
213007,Horsham,40.8043,16289,-36.73371561020551,142.19163892296558,Unspecified,2,2,2
213008,Lara,11.5223,15772,-38.022422857793536,144.40114488706843,Unspecified,1,2,5
213009,Leopold,5.5953,12319,-38.18741288633719,144.46685618566303,Unspecified,0,4,15
213010,Moe - Newborough,23.9071,15758,-38.17914847492668,146.27234208134024,Unspecified,1,1,1
213011,Morwell,14.2571,14068,-38.23039437192899,146.42001230608628,Unspecified,0,0,4
213012,Portland (Vic.),31.5141,10450,-38.36197642675256,141.60507814926024,Unspecified,1,1,1
213013,Sale,34.297,14100,-38.10059762031654,147.06629945572703,Unspecified,2,2,3
213014,Swan Hill,21.0529,10869,-35.34908828026714,143.5441862637279,Unspecified,1,1,1
213015,Wallan,22.6644,14741,-37.40342986739992,144.98785625966164,Unspecified,1,1,6
213016,Wangaratta,40.489,19712,-36.35535757672576,146.30686432380134,Unspecified,1,1,3
213017,Warragul,22.3108,19134,-38.15638074850839,145.9351270686015,Unspecified,1,1,1
213018,Yarrawonga - Mulwala (Yarrawonga Part),25.2981,8580,-36.01569526941387,145.99498578145003,Unspecified,2,2,2
214001,Ararat,13.6174,7015,-37.281891941481,142.93400061659506,Unspecified,4,4,4
214002,Bannockburn,12.3144,6178,-38.0482974090868,144.17926201702517,Unspecified,1,1,6
214003,Benalla,25.531,9742,-36.55103383815172,145.98916866144182,Unspecified,1,1,1
214004,Cobram,9.0955,5389,-35.91688752491222,145.64961877680312,Unspecified,0,0,0
214005,Corowa - Wahgunyah (Wahgunyah Part),2.022,1004,-36.01382379957996,146.4011050094321,Unspecified,0,0,0
214006,Cowes,10.6988,6797,-38.455859999861055,145.23748100019114,Unspecified,1,2,4
214007,Diggers Rest,4.9025,5011,-37.62445972995441,144.7076327383568,Unspecified,0,1,14
214008,Hamilton,43.2603,9577,-37.73220927597934,142.0277990509487,Unspecified,1,1,1
214009,Healesville,18.9432,8698,-37.66173961473653,145.52342433481274,Unspecified,2,2,6
214010,Inverloch,6.4328,6046,-38.63449565361715,145.7224674787873,Unspecified,0,0,1
214011,Kilmore,16.4368,8786,-37.29268033653391,144.95611367172123,Unspecified,1,1,3
214012,Kyabram,9.1683,6010,-36.3170480404786,145.0484351007044,Unspecified,0,0,0
214013,Kyneton,7.2598,5151,-37.24860369417345,144.45607055833514,Unspecified,1,1,3
214014,Lakes Entrance,18.7888,6527,-37.86891960860172,147.99094404211735,Unspecified,2,2,2
214015,Leongatha,7.2414,5618,-38.477594247817,145.9512591675386,Unspecified,2,2,5
214016,Maryborough (Vic.),10.0361,7769,-37.04544784241338,143.73818318977695,Unspecified,1,1,1
214017,Point Lonsdale - Queenscliff,11.2707,5265,-38.26537105818573,144.63770214298083,Unspecified,1,2,4
214018,Portarlington - St Leonards,17.1439,9048,-38.14759656764896,144.68439307888113,Unspecified,0,0,3
214019,Seymour,12.5439,6016,-37.0258272821013,145.15451657823328,Unspecified,1,1,2
214020,Stawell,18.9984,5627,-37.05201030438794,142.77038043500764,Unspecified,2,2,2
214021,Whittlesea,7.5377,5497,-37.5102230272109,145.12857305635825,Unspecified,1,1,6
214022,Wonthaggi,14.3255,8430,-38.60361734129417,145.588636324593,Unspecified,0,1,1
215001,Aireys Inlet - Fairhaven,5.2172,1395,-38.461708961817365,144.09204462294494,Unspecified,0,0,1
215002,Alexandra,6.0511,2480,-37.19389923268163,145.70947440728804,Unspecified,1,1,2
215003,Anglesea,6.8919,3191,-38.41015237354867,144.18216420483014,Unspecified,0,0,2
215004,Apollo Bay,2.8591,1491,-38.75310766276809,143.66709808232784,Unspecified,0,0,0
215005,Avoca,5.3094,1129,-37.08679956523681,143.47329351657035,Unspecified,1,1,1
215006,Ballan,3.7,2613,-37.59815993040208,144.22789196092555,Unspecified,0,0,0
215007,Balnarring - Balnarring Beach,5.9013,2528,-38.38470920057388,145.1161339388414,Unspecified,0,0,8
215008,Baranduda,2.874,1950,-36.1884764465582,146.94959309949877,Unspecified,1,2,6
215009,Barham - Koondrook (Koondrook Part),2.695,938,-35.637528239281245,144.1243793173575,Unspecified,0,0,0
215010,Beaconsfield Upper,10.0943,2274,-37.99901052875599,145.41174637450248,Unspecified,0,2,12
215011,Beaufort,4.0558,1166,-37.42985863876286,143.3826510509971,Unspecified,1,1,1
215012,Beechworth,7.9581,3291,-36.36419667277864,146.68965560807766,Unspecified,0,0,1
215013,Beveridge,6.5311,4160,-37.475173899679696,144.96139102952415,Unspecified,0,3,7
215014,Blind Bight,0.5433,1231,-38.21427290037168,145.33769783041302,Unspecified,0,0,11
215015,Bright,9.4725,2481,-36.72912124152214,146.95659556893958,Unspecified,1,2,2
215016,Broadford,9.0853,4076,-37.21320339360868,145.0475804480405,Unspecified,1,1,2
215017,Bunyip,4.5481,2707,-38.09260708303569,145.7216056202965,Unspecified,0,0,0
215018,Camperdown,4.693,2884,-38.23549639292055,143.14589336131743,Unspecified,1,1,1
215019,Cape Woolamai,1.9491,2301,-38.52714228184947,145.33605018859515,Unspecified,0,0,2
215020,Casterton,4.5158,1336,-37.59100154625945,141.40513801579792,Unspecified,0,0,0
215021,Chiltern,7.3339,1208,-36.15367142173525,146.59492099079557,Unspecified,0,0,1
215022,Churchill,6.1851,4679,-38.31188112049012,146.4189950715392,Unspecified,0,0,3
215023,Cobden,4.2598,1503,-38.32422603687907,143.07441997718354,Unspecified,0,0,1
215024,Cohuna,3.0671,1870,-35.80867712166246,144.21850202588186,Unspecified,1,1,1
215025,Corinella,1.8212,1056,-38.41458701422136,145.43119356784322,Unspecified,0,0,1
215026,Coronet Bay,4.0998,1108,-38.43330669085723,145.4449388095447,Unspecified,0,0,1
215027,Corryong,2.9552,1186,-36.19696043955648,147.90052077218806,Unspecified,0,0,0
215028,Creswick,14.8996,2794,-37.41629541570556,143.89459168538465,Unspecified,1,1,7
215029,Daylesford - Hepburn Springs,17.5977,3732,-37.34863212077067,144.13975555532747,Unspecified,2,2,3
215030,Dimboola,3.0833,1315,-36.454181730873245,142.03066411483996,Unspecified,1,1,1
215031,Donald,6.7831,1375,-36.36923054727053,142.98799380928753,Unspecified,0,0,0
215032,Euroa,6.9254,3116,-36.7541129718792,145.57118262641728,Unspecified,2,2,2
215033,Eynesbury,2.6036,2826,-37.78994461718553,144.55490792482493,Unspecified,0,3,13
215034,Foster,3.3291,1308,-38.65384227802565,146.2038614981955,Unspecified,1,1,2
215035,Garfield,1.8897,1644,-38.089771002781816,145.6780026580414,Unspecified,0,0,0
215036,Gembrook,2.2345,1226,-37.95242300877872,145.55089503292595,Unspecified,0,0,2
215037,Grantville - Pioneer Bay,3.2649,1357,-38.40216971803071,145.53751653771383,Unspecified,0,0,0
215038,Heathcote,6.4141,1844,-36.92528053449757,144.7141976443053,Unspecified,1,1,1
215039,Heyfield,3.6202,1529,-37.97875222018201,146.7868700688749,Unspecified,1,1,2
215040,Heywood,6.3732,1328,-38.138256618458,141.62966322047518,Unspecified,0,0,0
215041,Kerang,9.2085,3696,-35.738502883732814,143.92917534828717,Unspecified,1,1,1
215042,Kinglake,6.2574,1247,-37.532218780788966,145.34976188133766,Unspecified,0,0,4
215043,Koo Wee Rup,2.5848,3336,-38.19841020694429,145.4910725254848,Unspecified,0,0,2
215044,Koroit,2.2702,1705,-38.295269795125584,142.3673027628221,Unspecified,0,0,3
215045,Korumburra,5.1856,3869,-38.43522929493572,145.82124435694166,Unspecified,2,2,4
215046,Lancefield,2.9386,1691,-37.27796867281838,144.72910480130406,Unspecified,0,0,2
215047,Lang Lang,2.6699,2153,-38.26882692575016,145.5682809132732,Unspecified,0,0,0
215048,Longwarry,1.889,1923,-38.11163631665767,145.7696071647935,Unspecified,0,0,1
215049,Lorne,4.6639,1248,-38.5374606531749,143.97552003056222,Unspecified,1,1,1
215050,Macedon,21.4148,2926,-37.415987926800646,144.58396544185575,Unspecified,1,2,2
215051,Maffra,5.5525,4548,-37.95976741055063,146.98531136557642,Unspecified,1,1,4
215052,Maldon,7.4621,1381,-36.99189961267453,144.06920838162986,Unspecified,0,0,2
215053,Mansfield,12.5884,3999,-37.05245871421911,146.0902134508094,Unspecified,1,1,1
215054,Merbein,4.7459,2077,-34.16837357354545,142.06243798964977,Unspecified,0,2,2
215055,Metung,7.9072,1605,-37.877911419466095,147.84909373288878,Unspecified,0,0,5
215056,Millgrove,2.419,1584,-37.753110260062144,145.6546925917853,Unspecified,1,1,3
215057,Mirboo North,5.964,1752,-38.397641787475926,146.1658144977573,Unspecified,0,0,0
215058,Mortlake,5.3528,1147,-38.07886426764996,142.81597912185762,Unspecified,0,0,0
215059,Mount Beauty - Tawonga,13.4519,2249,-36.73020827681849,147.1592618172622,Unspecified,0,0,2
215060,Myrtleford,11.3315,2846,-36.56188935114486,146.73478834825815,Unspecified,1,1,2
215061,Nagambie,3.3151,2036,-36.788622552427135,145.15520368035163,Unspecified,0,0,1
215062,Nathalia,2.6634,1529,-36.05693291618002,145.20484476182511,Unspecified,0,0,0
215063,Neerim South,2.5524,1081,-38.01879550919759,145.95559216627214,Unspecified,0,0,1
215064,Nhill,3.336,1949,-36.335924421948455,141.65126486607596,Unspecified,2,2,2
215065,Numurkah,6.1448,3807,-36.09001612814385,145.44541336263464,Unspecified,0,0,0
215066,Orbost,3.6551,2024,-37.70093661525473,148.46244205255985,Unspecified,1,1,1
215067,Ouyen,5.7216,1022,-35.06875571267782,142.311678504177,Unspecified,2,2,2
215068,Paynesville,4.3329,3505,-37.9093122503943,147.71847225652925,Unspecified,0,0,5
215069,Port Fairy,9.2602,3424,-38.37930405071958,142.23369966151327,Unspecified,0,0,1
215070,Red Cliffs,3.4442,3070,-34.305595329606525,142.19258976639173,Unspecified,0,0,2
215071,Riddells Creek,11.1592,3574,-37.450051966235385,144.68092289006387,Unspecified,0,0,4
215072,Robinvale,5.8208,2441,-34.59165983589303,142.77750540591902,Unspecified,1,1,1
215073,Rochester,6.2259,2802,-36.35884891392252,144.70124139200144,Unspecified,0,0,0
215074,Romsey,6.567,4934,-37.35332412486032,144.74394610097883,Unspecified,0,0,3
215075,Rosedale,2.7081,1249,-38.154523018829295,146.785228974987,Unspecified,0,0,1
215076,Rutherglen,5.4774,2324,-36.05683299883328,146.46004958841974,Unspecified,0,0,0
215077,San Remo,3.5848,1664,-38.52693055513649,145.37959039781416,Unspecified,0,0,1
215078,Seville,1.6319,1918,-37.77500400877585,145.4592356969906,Unspecified,0,2,10
215079,St Arnaud,5.3899,2126,-36.617426141882845,143.25816673724552,Unspecified,1,1,1
215080,Stratford,4.1673,2185,-37.96531355702237,147.08821649916143,Unspecified,0,1,3
215081,Tatura,8.2273,4259,-36.44241284397092,145.23121263287936,Unspecified,1,1,3
215082,Teesdale,13.1125,2244,-38.025765342156205,144.04789384207268,Unspecified,0,0,1
215083,Terang,9.6766,2020,-38.24349277231591,142.91215881836172,Unspecified,0,0,0
215084,Tongala,1.9103,1331,-36.2507356186484,144.9520652856735,Unspecified,0,0,0
215085,Tooradin,1.2502,1196,-38.21079632651973,145.37982764171156,Unspecified,0,0,8
215086,Trafalgar,3.0819,3839,-38.20952820354247,146.15597849645883,Unspecified,0,1,2
215087,Wandong - Heathcote Junction,5.3473,1705,-37.3604738282003,145.02834911076675,Unspecified,0,2,4
215088,Warburton (Vic.),9.7959,1913,-37.75418736317704,145.6996255186542,Unspecified,0,1,2
215089,Warracknabeal,6.9806,2227,-36.25071822873775,142.3950301856507,Unspecified,1,1,1
215090,Winchelsea,6.3783,2032,-38.24072452906006,143.99438109907098,Unspecified,1,1,2
215091,Wonga Park,2.2525,1542,-37.73562599259908,145.27353401955222,Unspecified,1,6,21
215092,Woodend,6.0499,4663,-37.35600988018071,144.530568348617,Unspecified,1,2,4
215093,Woori Yallock - Launching Place,8.65,4198,-37.78374506741913,145.5447489330781,Unspecified,0,1,5
215094,Wurruk,3.0293,1027,-38.10903760928067,147.03006172793175,Unspecified,2,2,3
215095,Yallourn North,1.292,1107,-38.15727438100889,146.35973247961795,Unspecified,0,0,4
215096,Yarra Glen,2.7291,2417,-37.655538856975305,145.37490481436615,Unspecified,1,2,9
215097,Yarra Junction - Wesburn,9.0119,3283,-37.78078881489716,145.6258563076391,Unspecified,1,1,3
215098,Yarragon,1.2684,1387,-38.207912266818006,146.06194370276168,Unspecified,0,0,2
215099,Yarram,2.5519,1739,-38.56400863786193,146.67549230333617,Unspecified,1,1,1
215100,Yea,3.4727,1279,-37.21378884655511,145.41908220286365,Unspecified,1,1,1
221001,Allansford (L),1.1406,718,-38.38646476732328,142.60007492554882,Unspecified,0,1,3
221002,Avenel (L),4.7904,852,-36.900517407579606,145.22765507435497,Unspecified,1,1,2
221003,Barnawartha (L),1.9449,572,-36.105317144743154,146.67368951248682,Unspecified,0,1,2
221004,Batesford (L),10.9641,1139,-38.09094075526655,144.27779953785637,Unspecified,0,4,14
221005,Birchip (L),3.7375,674,-35.98060419476766,142.9159835188753,Unspecified,0,0,0
221006,Birregurra (L),1.3874,628,-38.34084472489913,143.78379794111677,Unspecified,0,0,1
221007,Boolarra (L),1.3022,534,-38.3838359013304,146.27106157512927,Unspecified,0,0,0
221008,Boort (L),2.358,808,-36.11583210131617,143.72328858721693,Unspecified,0,0,0
221009,Briagolong (L),1.1186,626,-37.84375942488398,147.0742546968928,Unspecified,0,0,1
221010,Bruthen (L),6.5978,574,-37.700397621673616,147.82492284724754,Unspecified,1,1,1
221011,Bushfield - Woodford (L),3.4104,619,-38.321818186375296,142.5026204291663,Unspecified,0,3,3
221012,Cabarita (L),4.6987,504,-34.20931455984019,142.0852391249923,Unspecified,0,2,2
221013,Cannons Creek (L),1.2631,617,-38.211434695823385,145.3112636236864,Unspecified,0,0,11
221014,Cape Paterson (L),1.4157,960,-38.67170856640349,145.6138005965433,Unspecified,1,1,1
221015,Cape Schanck (L),4.5612,503,-38.46662000165072,144.89098345466036,Unspecified,0,0,4
221016,Cardigan Village (L),1.7293,957,-37.518760301369504,143.7156363176093,Unspecified,0,3,8
221017,Carisbrook (L),4.2154,920,-37.04299392906139,143.8094264679722,Unspecified,0,1,1
221018,Charlton (L),6.1952,993,-36.26641701476605,143.34982291261508,Unspecified,0,0,0
221019,Clunes (L) (Vic.),3.9939,886,-37.2934320402134,143.78962569398837,Unspecified,0,0,1
221020,Coleraine (L),5.074,867,-37.60031414227599,141.69622825946536,Unspecified,0,0,0
221021,Dalyston (L),0.7871,721,-38.56240463912707,145.54490455402384,Unspecified,0,0,1
221022,Dunkeld (L),6.419,511,-37.64792197284803,142.3445486747364,Unspecified,1,1,1
221023,Dunolly (L),4.7289,680,-36.85890759118627,143.7305222914977,Unspecified,0,0,0
221024,Eagle Point (L),6.8654,994,-37.89013736791648,147.68884739759193,Unspecified,0,5,5
221025,Edenhope (L),5.9777,713,-37.031465548401776,141.27819476868305,Unspecified,1,1,1
221026,Eildon (L),4.0015,725,-37.232765986935085,145.91245356448874,Unspecified,0,0,1
221027,Elmore (L),2.0102,753,-36.492726700778434,144.60939480880702,Unspecified,0,0,0
221028,Flinders (L),3.006,811,-38.47464158707409,145.01860436874478,Unspecified,1,1,4
221029,Glengarry (L),1.0943,703,-38.12987348721806,146.56958251648857,Unspecified,0,3,3
221030,Golden Beach - Paradise Beach (L),9.8671,510,-38.2051567759265,147.39799863802827,Unspecified,0,0,0
221031,Gordon (L),1.3015,607,-37.58190575196573,144.1064513392991,Unspecified,0,0,1
221032,Harcourt (L),2.2796,570,-37.00402360858301,144.2561039051104,Unspecified,1,2,2
221033,Hopetoun (L) (Vic.),3.2452,509,-35.72763901219201,142.36330007472986,Unspecified,0,0,0
221034,Hopetoun Park (L),7.4241,914,-37.69503044958248,144.50163484205746,Unspecified,0,3,3
221035,Inglewood (L) (Vic.),3.5256,779,-36.57530721939687,143.8679345582319,Unspecified,1,1,2
221036,Inverleigh (L),4.1039,773,-38.09915358514338,144.05558723038413,Unspecified,0,0,3
221037,Kaniva (L),2.9539,683,-36.37746538734033,141.2376785387006,Unspecified,1,1,1
221038,Kinglake West (L),6.1292,901,-37.47282990314376,145.2637202697463,Unspecified,0,0,1
221039,Lake Boga (L),11.1946,762,-35.450480347477054,143.64419505919642,Unspecified,0,0,1
221040,Lake Tyers Beach (L),1.1196,661,-37.85852007166376,148.08111700762478,Unspecified,0,2,2
221041,Lethbridge (L),2.8499,641,-37.96323139403376,144.1359947543354,Unspecified,0,1,2
221042,Lindenow (L),1.3932,554,-37.8011914794785,147.4488425611441,Unspecified,0,0,5
221043,Loch Sport (L),6.2093,1020,-38.047888797849474,147.57943899172037,Unspecified,0,0,0
221044,Mallacoota (L),6.4063,1118,-37.5479619817657,149.74483051897195,Unspecified,1,1,1
221045,Malmsbury (L),3.0342,736,-37.18880776212729,144.3772625908597,Unspecified,0,1,2
221046,Marong (L),2.6635,1508,-36.73562215191559,144.1342638424728,Unspecified,1,1,6
221047,Maryknoll (L),3.366,646,-38.03422707711946,145.6042092995635,Unspecified,0,0,1
221048,Meeniyan (L),1.8264,516,-38.581327170272345,146.01507014608356,Unspecified,1,1,4
221049,Moriac (L),1.4157,691,-38.2452180582488,144.17252411274754,Unspecified,1,1,13
221050,Murchison (L),2.8335,775,-36.61285027585605,145.2173814975422,Unspecified,0,0,1
221051,Murtoa (L),3.1153,780,-36.62159925143596,142.46881580448343,Unspecified,0,0,0
221052,Nar Nar Goon (L),0.8426,526,-38.08386284949521,145.56752180464707,Unspecified,0,0,2
221053,Newlands Arm (L),1.685,748,-37.92534995181016,147.6980429933382,Unspecified,0,0,5
221054,Newstead (L),3.3163,656,-37.11168031449944,144.063531805772,Unspecified,0,0,1
221055,Nichols Point (L),1.7888,660,-34.23108069929253,142.21311937136528,Unspecified,0,2,2
221056,Nyah West (L),1.0712,532,-35.1870999578947,143.3439978412049,Unspecified,0,0,0
221057,Nyora (L),2.4499,789,-38.3339309317138,145.6729900531865,Unspecified,0,0,2
221058,Oxley (L),1.5126,503,-36.44668505529928,146.38307591633685,Unspecified,0,0,3
221059,Porepunkah (L),1.8889,771,-36.698148699601326,146.91271434329266,Unspecified,1,2,3
221060,Raymond Island (L),7.5986,589,-37.909092369795424,147.7514808628848,Unspecified,0,0,6
221061,Rhyll (L),0.9184,729,-38.4646364265169,145.30287496794182,Unspecified,0,1,3
221062,Rushworth (L),4.5501,972,-36.58318457123299,145.01336176501286,Unspecified,0,0,0
221063,Sea Lake (L),2.321,562,-35.50599813253083,142.85218289922963,Unspecified,1,1,1
221064,Seville East (L),0.7478,695,-37.77616547061017,145.49456717570584,Unspecified,0,0,9
221065,Shoreham (L),2.8636,515,-38.42441097088081,145.05173424730864,Unspecified,0,1,6
221066,Smythesdale (L),5.9201,731,-37.65089920952829,143.6785474631149,Unspecified,0,0,5
221067,Strathmerton (L),1.3106,572,-35.9256352917802,145.48049471569155,Unspecified,0,0,0
221068,Sunset Strip (L),1.1012,533,-38.492200545806526,145.262691225513,Unspecified,0,1,2
221069,Surf Beach - Sunderland Bay (L),1.5868,981,-38.50892837021194,145.28769006945572,Unspecified,0,1,2
221070,Tallangatta (L),1.6035,1016,-36.21614789123327,147.17667022576703,Unspecified,0,0,0
221071,Timboon (L),2.9754,830,-38.48547967888632,142.9768757882495,Unspecified,0,0,0
221072,Toongabbie (L),1.5312,513,-38.061115236692544,146.62853866849147,Unspecified,0,0,4
221073,Traralgon South (L),4.8251,507,-38.31189672768809,146.5453663350911,Unspecified,0,0,3
221074,Trentham (L),2.3458,827,-37.38731242224375,144.32263926528577,Unspecified,1,1,5
221075,Ventnor (L),2.873,826,-38.465924415960416,145.1822516475677,Unspecified,0,2,4
221076,Venus Bay (L),17.3263,904,-38.67620493447665,145.79031884974506,Unspecified,0,0,1
221077,Violet Town (L),2.4536,717,-36.63816336236755,145.71733814422663,Unspecified,0,0,2
221078,Warneet (L),0.6319,541,-38.2213691961768,145.31172247803335,Unspecified,0,0,11
221079,Wedderburn (L),4.0193,650,-36.4192605916951,143.61535072616786,Unspecified,1,1,1
221080,Werribee South (L),0.5022,570,-37.97159687198821,144.68823118320282,Unspecified,0,4,11
221081,Wycheproof (L),2.6669,562,-36.073729106794,143.22929969005816,Unspecified,2,2,2
221082,Wyndham Harbour (L),0.3096,939,-37.96407618231574,144.70677567791802,Unspecified,0,4,11
221083,Yackandandah (L),5.7804,1113,-36.31729439481468,146.8396469702547,Unspecified,1,1,2
221084,Yinnar (L),1.2363,826,-38.32501078660962,146.32686104436354,Unspecified,0,0,1
301001,Brisbane,2026.9222,2287896,-27.47458774085963,153.01197966677108,Queensland,15,22,30
302001,Gold Coast - Tweed Heads (Gold Coast Part),552.7077,607665,-27.971887688697088,153.35070336733713,Queensland,2,8,16
302002,Sunshine Coast,368.7256,284131,-26.618136680396383,153.06918026533495,Queensland,2,3,6
303001,Cairns,198.5773,153181,-16.897855030249236,145.72074422320296,Queensland,1,2,2
303002,Toowoomba,119.9124,108398,-27.567507277035563,151.93042691544125,Queensland,3,4,4
303003,Townsville,265.9586,173724,-19.27535528608792,146.74677392286603,Queensland,0,2,2
311001,Bundaberg,104.3933,52370,-24.88909757729861,152.3231978424282,Unspecified,0,0,1
311002,Hervey Bay,93.2156,57722,-25.29168480422208,152.8129683370645,Unspecified,1,1,1
311003,Mackay,135.9538,80455,-21.10276963661158,149.17497677507663,Unspecified,1,1,1
311004,Rockhampton,95.7052,63151,-23.345409012856106,150.5142324768606,Unspecified,1,1,1
312001,Bongaree - Woorim,27.1701,20612,-27.0663114489256,153.16729375471976,Unspecified,0,0,2
312002,Gladstone (Qld),101.8846,34703,-23.86568892404866,151.24519424094808,Unspecified,0,0,0
312003,Maryborough (Qld),35.5334,22237,-25.5356206281328,152.69309643619866,Unspecified,1,1,1
312004,Nambour,23.6847,20918,-26.63210558263341,152.95676747994057,Unspecified,1,3,6
313001,Airlie Beach - Cannonvale,20.2416,10646,-20.280245741128223,148.71555101145591,Unspecified,0,0,2
313002,Bargara - Innes Park,21.1099,13000,-24.852334047541,152.46564347908392,Unspecified,0,0,1
313003,Dalby,138.8704,12082,-27.179314868258768,151.25465616812576,Unspecified,1,1,1
313004,Emerald,38.982,14089,-23.53548962532256,148.16255510828944,Unspecified,0,0,0
313005,Gracemere,22.4585,11534,-23.45590783533796,150.45862017302196,Unspecified,0,1,1
313006,Gympie,36.7498,19435,-26.19992630772144,152.6681956384614,Unspecified,3,3,3
313007,Highfields,16.5492,10259,-27.45726289303777,151.94060885832812,Unspecified,0,1,4
313008,Kingaroy,29.6626,10147,-26.55056971515586,151.84452812801763,Unspecified,2,2,2
313009,Mount Isa,33.6911,17936,-20.710899009247058,139.49916290036728,Unspecified,0,0,0
313010,Warwick,37.1952,14110,-28.21649940641853,152.0315439795724,Unspecified,1,1,1
313011,Yarrabilba,4.3652,10240,-27.804874066953296,153.11407689952264,Unspecified,0,0,6
313012,Yeppoon,42.8074,18789,-23.13449237896896,150.72662520993788,Unspecified,0,0,0
314001,Atherton,12.3289,7348,-17.264872728748767,145.4825106878175,Unspecified,0,0,0
314002,Ayr,21.1957,8200,-19.57270201205749,147.40054647129284,Unspecified,1,1,1
314003,Beaudesert,15.5678,8127,-27.970224776156684,152.99811093656928,Unspecified,2,2,2
314004,Beerwah,8.558,5924,-26.86181200201034,152.9443390373298,Unspecified,0,1,2
314005,Biloela,14.7854,5667,-24.3952202660662,150.51216056690726,Unspecified,0,0,0
314006,Bowen,45.133,9612,-20.0229923258686,148.23270622584445,Unspecified,1,1,1
314007,Charters Towers,41.8593,8040,-20.068562074865444,146.268523831067,Unspecified,1,1,1
314008,Chinchilla,11.2345,6292,-26.745456328147814,150.63165152313812,Unspecified,0,0,0
314009,Flagstone,19.6039,7832,-27.80694349467495,152.95805826679089,Unspecified,0,0,6
314010,Gatton,8.6286,6852,-27.5670617052275,152.2767780261527,Unspecified,0,1,1
314011,Goondiwindi,20.0587,5439,-28.529962718843336,150.29334347739484,Unspecified,0,0,0
314012,Gordonvale,14.4744,6035,-17.10546090281169,145.7747704485356,Unspecified,0,0,0
314013,Innisfail,10.2838,7173,-17.52726117792915,146.0255602202246,Unspecified,1,1,1
314014,Jimboomba,28.4475,5581,-27.846442262077705,153.02875104920423,Unspecified,0,0,2
314015,Kensington Grove - Regency Downs,24.309,5512,-27.539366492515665,152.45986845020846,Unspecified,0,0,1
314016,Mareeba,13.9245,8585,-17.00194427679263,145.42430298405367,Unspecified,0,0,0
314017,Moranbah,12.5367,8899,-21.999476794261373,148.03986905728834,Unspecified,0,0,0
314018,Mount Cotton,5.5502,6797,-27.63685272359693,153.24959775286885,Unspecified,0,2,8
314019,Palmwoods,7.3091,5042,-26.683973498376748,152.95628511643767,Unspecified,1,3,6
314020,Roma,37.3413,6522,-26.56105039494912,148.77862706420683,Unspecified,1,1,1
314021,Sandstone Point - Ningi,36.5017,9929,-27.071912786284045,153.0794391228963,Unspecified,0,0,3
314022,Tamborine Mountain,35.9685,8001,-27.94828220784282,153.19518675995485,Unspecified,0,0,8
314023,Tannum Sands - Boyne Island,53.6952,9715,-23.93788985421678,151.3298882452413,Unspecified,0,0,0
315001,Agnes Water,3.8415,1205,-24.20695554421049,151.89853552329004,Unspecified,0,0,0
315002,Alice River,9.2556,2590,-19.33599702376946,146.60149058584977,Unspecified,0,0,1
315003,Allingham,5.0054,1277,-18.69582098550477,146.29952165209173,Unspecified,0,0,0
315004,Aurukun,30.5428,1101,-13.344511700860464,141.72970727685714,Unspecified,0,0,0
315005,Babinda,2.8729,1113,-17.342783423958018,145.9214040878459,Unspecified,0,0,0
315006,Bamaga,10.0534,1180,-10.894450492056013,142.39437102282537,Unspecified,0,0,0
315007,Beachmere,5.3492,3309,-27.13391708249938,153.0459229839221,Unspecified,0,2,3
315008,Blackwater,12.5772,4567,-23.581482483832023,148.88555957228093,Unspecified,0,0,0
315009,Boonah,8.561,2721,-28.00263738356469,152.67651154444704,Unspecified,0,0,0
315010,Burnett Heads,16.0813,2908,-24.77794646489796,152.40577645461045,Unspecified,1,1,1
315011,Burrum Heads,1.4498,1508,-25.18839951693473,152.60919677339564,Unspecified,0,0,0
315012,Calliope,7.0516,4396,-24.00170335757777,151.2012940040485,Unspecified,0,0,0
315013,Cambooya,2.4844,1839,-27.710310176136428,151.8646900414713,Unspecified,0,0,2
315014,Cardwell,4.8561,1245,-18.26366544683728,146.02507056079313,Unspecified,1,1,1
315015,Cedar Grove,11.1228,2107,-27.86261263373845,152.98455228930212,Unspecified,0,0,2
315016,Cedar Vale,8.6124,3148,-27.88179898703695,152.99989923694727,Unspecified,0,0,2
315017,Charleville,13.0447,2551,-26.40716270415592,146.2553314627016,Unspecified,1,1,1
315018,Cherbourg,31.6002,1194,-26.288809050234743,151.93599235530124,Unspecified,0,0,0
315019,Childers,2.1239,1361,-25.236312602271823,152.27598642732795,Unspecified,1,1,1
315020,Clermont,4.9157,2079,-22.8278212138856,147.6413989155196,Unspecified,0,0,0
315021,Clifton,4.1026,1299,-27.933543903179764,151.90867657019876,Unspecified,0,0,0
315022,Cloncurry,14.784,2524,-20.695748571764423,140.5073386348111,Unspecified,1,1,1
315023,Collinsville,2.789,1301,-20.552619189233347,147.84357507329338,Unspecified,0,0,0
315024,Cooktown,10.369,1797,-15.476089498075408,145.24798658799503,Unspecified,0,0,0
315025,Cooloola Village,4.6327,2921,-25.973601524335205,152.98478917744242,Unspecified,0,0,0
315026,Cooroy,6.4944,3485,-26.414611157858168,152.9084368162129,Unspecified,1,1,3
315027,Crows Nest,5.1008,1808,-27.26522829289943,152.0545887217384,Unspecified,0,0,0
315028,D'Aguilar,5.856,1341,-26.984142409631914,152.8089101792001,Unspecified,0,0,0
315029,Dayboro,9.5326,2193,-27.198955353276,152.8188524159515,Unspecified,0,0,3
315030,Doomadgee,4.9976,1387,-17.941324806262532,138.82741061089214,Unspecified,0,0,0
315031,Dysart,6.3961,2738,-22.58534366873404,148.34592324287996,Unspecified,0,0,0
315032,Emu Park,15.0742,4860,-23.28137507207152,150.80136190746617,Unspecified,0,0,0
315033,Esk,6.3733,1230,-27.24292585460408,152.41438949776884,Unspecified,1,1,1
315034,Eumundi,3.4029,1119,-26.48241953871768,152.94691244624735,Unspecified,0,1,4
315035,Fernvale,5.5231,3193,-27.455509459266857,152.65683263652613,Unspecified,0,0,2
315036,Gayndah,7.9564,1695,-25.62543707551384,151.61249353011203,Unspecified,0,0,0
315037,Glass House Mountains,11.1233,4065,-26.90772946876533,152.96417425335457,Unspecified,1,1,2
315038,Gowrie Junction,9.5292,2030,-27.48203958752267,151.8884763017735,Unspecified,0,2,4
315039,Gununa,6.2071,1022,-16.659339460097023,139.17756303533244,Unspecified,0,0,0
315040,Hamilton Island,7.0754,1759,-20.352937509520235,148.96049826239795,Unspecified,0,0,0
315041,Hay Point,24.6035,1306,-21.29646395796603,149.27367737479048,Unspecified,0,0,1
315042,Home Hill,4.1109,2712,-19.661719978297025,147.4156200924615,Unspecified,0,1,1
315043,Howard,2.0946,1042,-25.317684087472163,152.5607170729184,Unspecified,0,0,0
315044,Ingham,19.6205,4334,-18.66076690033721,146.14503050458714,Unspecified,0,0,0
315045,Jacobs Well,6.3857,2862,-27.78795343732844,153.36989700011418,Unspecified,0,2,7
315046,Kilcoy,5.2775,2351,-26.94210852249168,152.5556872326395,Unspecified,0,0,0
315047,Kingsthorpe,4.2811,2012,-27.475088130559225,151.8236437470839,Unspecified,0,1,4
315048,Kooralbyn,15.3152,1649,-28.083461874295264,152.84908622700206,Unspecified,0,0,2
315049,Kuranda,17.6433,2456,-16.823798790314914,145.62532463311177,Unspecified,0,0,2
315050,Laidley,8.8884,3976,-27.63492769872358,152.39869569754526,Unspecified,0,0,1
315051,Landsborough,13.2881,4635,-26.816334918839875,152.96645972296227,Unspecified,0,0,4
315052,Logan Village,14.843,3542,-27.778117124135,153.10321049989608,Unspecified,0,0,9
315053,Longreach,14.1687,2738,-23.438835680935306,144.2726908047113,Unspecified,1,1,1
315054,Lowood,15.1671,3873,-27.46143092097392,152.56635049539707,Unspecified,0,0,1
315055,Macleay Island,7.23,3193,-27.61088830723784,153.35995707644622,Unspecified,0,1,3
315056,Malanda,9.957,1707,-17.349264918359157,145.6006921180995,Unspecified,0,0,0
315057,Maleny,5.739,2976,-26.767260464746844,152.84709463064894,Unspecified,0,0,2
315058,Marian,2.9496,3615,-21.1472941560336,148.95413725550668,Unspecified,0,0,0
315059,Meridan Plains,0.6298,1533,-26.755670956322568,153.10357886913113,Unspecified,0,2,7
315060,Meringandan West,6.7945,2392,-27.41774539509662,151.89474971791012,Unspecified,0,0,4
315061,Middlemount,12.1722,1884,-22.812859786575306,148.70005413799615,Unspecified,0,0,0
315062,Miles,4.9665,1349,-26.657525663433468,150.18947065965295,Unspecified,1,1,1
315063,Millmerran,4.6728,1371,-27.87883047867323,151.26416696674892,Unspecified,0,0,0
315064,Mirani,1.5703,1554,-21.161847923971763,148.87004673607515,Unspecified,0,0,0
315065,Monto,4.5134,1021,-24.86597638443113,151.11971125967116,Unspecified,1,1,1
315066,Mooloolah,8.0817,3191,-26.76235181049789,152.96748716956412,Unspecified,0,1,8
315067,Moore Park,5.1677,2293,-24.70846358052717,152.2616372249349,Unspecified,0,0,1
315068,Mossman,4.7856,1744,-16.468356564655796,145.37510928515846,Unspecified,1,1,2
315069,Mount Morgan,13.2156,2487,-23.630831003810734,150.39120770884685,Unspecified,0,0,0
315070,Moura,3.9732,1843,-24.571421510319148,149.97774558789732,Unspecified,0,0,0
315071,Mulambin,2.0431,1042,-23.19157435423105,150.7880515121327,Unspecified,0,0,0
315072,Mundubbera,4.4286,1066,-25.58491171747705,151.30062082436586,Unspecified,0,0,0
315073,Murgon,4.9338,1966,-26.236753601167667,151.93638474936537,Unspecified,0,0,0
315074,Nanango,26.5958,3438,-26.678752177647123,151.98097133423016,Unspecified,0,0,0
315075,Nelly Bay,2.2945,1194,-19.156353800654188,146.84804182779033,Unspecified,0,0,1
315076,Oakey,9.8105,4319,-27.43754670172594,151.717780550418,Unspecified,0,0,1
315077,Palm Island,56.2938,2098,-18.73836825720899,146.6185905918032,Unspecified,0,0,0
315078,Pittsworth,5.0041,2933,-27.718372439717232,151.6352231628189,Unspecified,0,0,0
315079,Pomona,6.8215,1735,-26.3759388587558,152.8592313974397,Unspecified,0,1,2
315080,Port Douglas - Craiglie,8.5047,4624,-16.5116014447445,145.4660453384252,Unspecified,1,1,2
315081,Proserpine,3.4466,3440,-20.40383117255837,148.57967860806937,Unspecified,2,2,2
315082,Rainbow Beach,2.5244,1176,-25.90064233845745,153.08714461478877,Unspecified,0,0,0
315083,Rangewood,2.8146,1039,-19.311383232739004,146.63876675934506,Unspecified,0,0,2
315084,River Heads,6.7713,2044,-25.40132849171285,152.90882807724182,Unspecified,0,0,1
315085,Rosewood,5.9052,3074,-27.63488203631028,152.59935424102167,Unspecified,0,1,4
315086,Russell Island,17.5111,3698,-27.673202218689905,153.38302260473176,Unspecified,0,0,4
315087,Samford Valley - Highvale,11.0008,2712,-27.36847546889333,152.8460578608214,Unspecified,0,1,9
315088,Sarina,4.9158,3487,-21.419627256008244,149.21902135483447,Unspecified,0,0,0
315089,St George,15.7102,2508,-28.03916077276528,148.59121021921823,Unspecified,0,0,0
315090,Stanthorpe,15.3881,4873,-28.655373592376165,151.94035025881328,Unspecified,1,1,1
315091,Thursday Island,3.7184,2805,-10.578769156137655,142.2197690980369,Unspecified,0,0,0
315092,Tin Can Bay,4.2583,2274,-25.9215676118494,152.99914831712684,Unspecified,0,0,0
315093,Toogoolawah,3.4779,957,-27.08737731143337,152.3728780554612,Unspecified,0,0,1
315094,Toogoom,3.0163,2344,-25.256551984255747,152.69167655248384,Unspecified,0,0,1
315095,Tully,7.0421,2252,-17.929779664451697,145.92644097813627,Unspecified,1,1,1
315096,Walkerston,3.5735,3567,-21.164571287864703,149.05689818922545,Unspecified,0,0,1
315097,Walloon,5.8605,1927,-27.60207131309824,152.6647456075359,Unspecified,0,4,5
315098,Weipa,15.8036,4097,-12.641570698651106,141.86117756881376,Unspecified,0,0,0
315099,Westbrook,2.3822,3864,-27.60261269696871,151.87312165478096,Unspecified,1,3,4
315100,Willowbank,4.3187,1300,-27.66476306028844,152.6874106860112,Unspecified,1,4,5
315101,Withcott,9.4493,1796,-27.55975786142041,152.01947797486537,Unspecified,0,2,4
315102,Wondai,7.1583,1782,-26.31429749707013,151.86609945520317,Unspecified,0,0,0
315103,Wongaling Beach,7.5743,1323,-17.902960648834302,146.09124952888487,Unspecified,0,0,1
315104,Woodford,12.4744,3734,-26.95577764532783,152.7746202076438,Unspecified,0,0,0
315105,Woodgate,2.468,1359,-25.10767517560256,152.56387123554904,Unspecified,0,0,0
315106,Wyreema,1.3711,1897,-27.657453782157795,151.86208152337488,Unspecified,0,1,4
315107,Yandina,6.871,2595,-26.560499159627447,152.95092726242007,Unspecified,0,1,7
315108,Yarrabah,0.684,1273,-16.90882924371382,145.8709611343988,Unspecified,0,1,2
315109,Yungaburra,4.136,1052,-17.261832468556186,145.58441154576835,Unspecified,0,0,0
321001,Aldershot (L),1.0678,603,-25.46420491342957,152.66311053881364,Unspecified,0,1,1
321002,Allora (L),1.4619,843,-28.036214300626405,151.98250456420794,Unspecified,0,0,0
321003,Apple Tree Creek (L),5.772,574,-25.22426015118354,152.2333026836655,Unspecified,1,1,1
321004,Aratula (L),6.8236,553,-27.987852915569672,152.54964579685588,Unspecified,0,0,0
321005,Armstrong Beach (L),1.1298,742,-21.4512774811406,149.28867232771415,Unspecified,0,0,0
321006,Badu Island (L),102.5447,704,-10.116406451947912,142.14531186707737,Unspecified,0,0,0
321007,Bakers Creek (L),20.9456,1590,-21.21425422947576,149.15801787203964,Unspecified,0,1,1
321008,Balgal Beach (L),13.6394,998,-19.039857581784897,146.4109144176155,Unspecified,0,0,1
321009,Barcaldine (L),7.4188,1243,-23.55933038574624,145.29679074827237,Unspecified,1,1,1
321010,Belvedere (L),0.4548,912,-17.52076574651909,145.98919023616585,Unspecified,1,1,1
321011,Benaraby (L),3.9572,765,-24.00366134374442,151.32694477548762,Unspecified,0,0,0
321012,Biggenden (L),2.452,657,-25.507186259898603,152.04731332435114,Unspecified,0,0,0
321013,Black Mountain (L),7.464,783,-26.404010117646187,152.88007180749085,Unspecified,1,1,3
321014,Black River (L),1.2417,527,-19.24354138167175,146.6256009373059,Unspecified,0,0,1
321015,Blackall (L),7.6679,1064,-24.41845507947699,145.45765336994276,Unspecified,1,1,1
321016,Blackbutt (L),1.6997,606,-26.88461058718743,152.10416697300187,Unspecified,0,0,0
321017,Blue Mountain Heights (L),3.8463,988,-27.49829963480498,151.95717293070865,Unspecified,1,2,4
321018,Bluewater (L),3.2862,715,-19.16834980887909,146.56183900428263,Unspecified,0,0,0
321019,Bluewater Park (L),3.6012,1026,-19.20504334042344,146.51338455973195,Unspecified,0,0,0
321020,Booral (L),8.566,860,-25.361259171765308,152.90293340095167,Unspecified,0,0,1
321021,Bouldercombe (L),7.6294,758,-23.56712193797161,150.46887129802556,Unspecified,0,0,0
321022,Boyland (L),6.3805,677,-27.94912864327593,153.16578619123806,Unspecified,0,0,7
321023,Brandon (L),0.9562,754,-19.55515537515217,147.35586702929731,Unspecified,0,1,1
321024,Brightview (L),2.535,560,-27.519816613698183,152.49164120013225,Unspecified,0,0,1
321025,Burrum Heads - East (L),1.1268,582,-25.21087862172553,152.632557667002,Unspecified,0,0,0
321026,Campwin Beach (L),0.5933,511,-21.378013647417152,149.31259094915077,Unspecified,0,0,0
321027,Canungra (L),1.6803,793,-28.018564208206552,153.16171340493904,Unspecified,0,0,5
321028,Capella (L),9.3994,974,-23.08339475720505,148.02267734305792,Unspecified,0,0,0
321029,Coochiemudlo Island (L),1.6445,850,-27.56988991227256,153.33048443355852,Unspecified,1,1,3
321030,Coominya (L),5.4317,513,-27.39728110356669,152.50116797985453,Unspecified,0,0,1
321031,Cooran (L),7.7909,1021,-26.339698744750045,152.81690234604577,Unspecified,0,0,1
321032,Cooroibah (L),21.8135,1990,-26.3603024135058,152.99838314061816,Unspecified,0,2,3
321033,Cooya Beach (L),1.035,1046,-16.44942282422386,145.40425725115654,Unspecified,0,1,2
321034,Cunnamulla (L),6.5783,1124,-28.074250294831625,145.69030390558345,Unspecified,0,0,0
321035,Curra (L),20.1007,1956,-26.08415145645135,152.57452586581698,Unspecified,0,0,4
321036,Delaneys Creek (L),4.3585,1074,-27.004556762561844,152.79539938525275,Unspecified,0,0,0
321037,Dunwich (L),2.2232,795,-27.49397728492396,153.40829695117048,Unspecified,0,0,2
321038,Elliott Heads (L),1.3962,912,-24.910784153738348,152.48906029432425,Unspecified,0,0,1
321039,Flaxton (L),11.6397,992,-26.65712053396559,152.86410255803966,Unspecified,0,0,3
321040,Forest Acres (L),7.3424,658,-26.36724685848645,152.93984020903596,Unspecified,0,1,3
321041,Gin Gin (L),4.0324,914,-24.99180113751537,151.95889143600454,Unspecified,1,1,1
321042,Glenore Grove (L),3.7738,662,-27.543166578545115,152.41314957913386,Unspecified,0,1,1
321043,Glenview (L),2.9591,723,-26.757174207423752,153.02991558184635,Unspecified,0,1,8
321044,Glenwood (L),18.356,1995,-25.949053369430576,152.63502036651423,Unspecified,0,1,1
321045,Goldsborough (L),13.3366,1085,-17.14604688205378,145.75236483880363,Unspecified,0,0,0
321046,Gooburrum (L),1.3177,556,-24.81744873756527,152.34561483727953,Unspecified,0,1,1
321047,Goombungee (L),2.0759,786,-27.30565216088353,151.8517692254187,Unspecified,0,0,0
321048,Goomeri (L),1.7752,523,-26.183820002865613,152.0698678529719,Unspecified,0,0,0
321049,Greenmount (L),1.0723,559,-27.78476792707223,151.90536493701487,Unspecified,0,0,0
321050,Helidon (L),1.1785,830,-27.548580915647,152.1264390142712,Unspecified,0,0,2
321051,Herberton (L),3.7852,984,-17.381888358163096,145.38635910927547,Unspecified,0,0,0
321052,Hope Vale (L),20.9571,895,-15.293599903189856,145.09756135820197,Unspecified,0,0,0
321053,Horn Island (L),53.1849,533,-10.606472133412217,142.28156210597984,Unspecified,0,0,0
321054,Horseshoe Bay (L),4.9279,611,-19.12348896209013,146.84979897762452,Unspecified,0,0,0
321055,Hughenden (L),10.753,1004,-20.83248737057689,144.20979846316246,Unspecified,1,1,1
321056,Inglewood (L) (Qld),4.507,760,-28.41588319028546,151.0840408213584,Unspecified,1,1,1
321057,Jandowae (L),2.8213,734,-26.78134582031432,151.10992522563217,Unspecified,0,0,0
321058,Kalbar (L),2.8117,980,-27.94111122226846,152.62929157063652,Unspecified,0,0,0
321059,Kiels Mountain (L),6.5329,1168,-26.64776294476047,153.00462459649535,Unspecified,3,5,6
321060,Killarney (L),2.3256,685,-28.339275784200577,152.29431921616313,Unspecified,0,0,0
321061,Kinka Beach (L),7.4056,674,-23.226017664623903,150.78711782462236,Unspecified,0,0,0
321062,Kowanyama (L),7.933,1079,-15.483828306353724,141.74486496649385,Unspecified,0,0,0
321063,Kureelpa (L),19.0219,968,-26.606735352986,152.8909655493027,Unspecified,0,1,4
321064,Kurrimine Beach (L),0.8363,624,-17.77944292660123,146.10240628976348,Unspecified,0,0,0
321065,Laidley Heights (L),11.1686,1272,-27.633205586768124,152.37045222433952,Unspecified,0,1,1
321066,Lamb Island (L),1.385,504,-27.624832180507912,153.38017175267285,Unspecified,0,0,2
321067,Lockhart River (L),6.9249,606,-12.786656834188184,143.34282135853158,Unspecified,0,0,0
321068,Lower Beechmont (L),3.7136,828,-28.03926391748854,153.25183015422712,Unspecified,0,0,13
321069,Mapleton (L),1.268,1014,-26.625588059755835,152.86347650120678,Unspecified,0,1,3
321070,Marburg (L),3.7076,696,-27.569480063809173,152.5974701188145,Unspecified,0,0,4
321071,Mareeba - South (L),5.2463,597,-17.049970301742558,145.42137441558057,Unspecified,0,0,0
321072,Minden Village (L),4.8069,860,-27.53479733766034,152.56247431937828,Unspecified,0,0,3
321073,Mission Beach (L),3.2597,872,-17.87010040309553,146.1021753517523,Unspecified,0,0,0
321074,Mitchell (L),6.0628,835,-26.484456457457902,147.9709284534421,Unspecified,0,0,0
321075,Mundoolun (L),3.843,1209,-27.866306976579235,153.07554045344116,Unspecified,0,0,2
321076,Napranum (L),2.0387,883,-12.68142543822243,141.89010702757335,Unspecified,0,0,0
321077,Nebo (L),2.3347,618,-21.69255147228476,148.69180265492196,Unspecified,0,0,0
321078,Nome (L),1.7729,507,-19.37391556891616,146.90978694198003,Unspecified,0,0,2
321079,Normanton (L),12.1609,1326,-17.68826367392427,141.07520566231986,Unspecified,0,0,0
321080,Oakhurst (L),25.6987,2413,-25.508571145926588,152.6254466601799,Unspecified,0,1,1
321081,Peachester (L),1.8012,534,-26.84322593366546,152.8864874108158,Unspecified,0,0,1
321082,Pie Creek (L),4.1293,603,-26.236752099836888,152.62523361345453,Unspecified,0,3,3
321083,Plainland (L),17.6668,1565,-27.573887722887267,152.42071153112073,Unspecified,0,1,1
321084,Point Lookout (L),2.232,780,-27.42812864328776,153.53006148832873,Unspecified,0,0,0
321085,Poona (L),1.7326,576,-25.71818134848965,152.91095622393144,Unspecified,0,0,0
321086,Pormpuraaw (L),24.8767,606,-14.891269239492404,141.6267504295616,Unspecified,0,0,0
321087,Prince Henry Heights (L),0.5607,600,-27.55278417906731,151.99096094381505,Unspecified,1,3,4
321088,Ravenshoe (L),3.5227,786,-17.613493191282835,145.48817872946438,Unspecified,0,0,0
321089,Rubyvale (L),8.7928,518,-23.417184697672983,147.6922400552166,Unspecified,0,0,0
321090,Samford Village (L),1.5284,819,-27.3739768899116,152.88413429581846,Unspecified,0,2,25
321091,Sapphire (L),9.598,518,-23.46708465041917,147.71017156186392,Unspecified,0,0,0
321092,Seaforth (L),6.3352,516,-20.895282035204225,148.95366554112502,Unspecified,0,0,0
321093,Sharon (L),4.5254,673,-24.8849853055367,152.26327324609372,Unspecified,0,0,1
321094,Sloping Hummock (L),0.5652,640,-24.843244115961408,152.4251081431467,Unspecified,0,1,1
321095,South Mission Beach (L),2.0381,956,-17.939645155462884,146.09088392485003,Unspecified,0,0,1
321096,Springsure (L),5.1903,731,-24.121862132219164,148.08725999024807,Unspecified,0,0,0
321097,Sunshine Acres (L),12.3651,1009,-25.358133494675297,152.78770381700176,Unspecified,0,1,1
321099,Tara (L),4.8528,728,-27.276492389525085,150.45789677332718,Unspecified,0,0,0
321100,Taroom (L),4.4097,578,-25.64207128919834,149.80170641130525,Unspecified,0,0,0
321101,Texas (L),4.5045,707,-28.851903369113813,151.17637473535805,Unspecified,0,0,0
321102,Thagoona (L),2.2695,765,-27.6236220494738,152.62739534209703,Unspecified,0,2,5
321103,The Palms (L),11.9653,1076,-26.192156820022376,152.58969262029,Unspecified,0,3,3
321104,Tieri (L),1.8959,724,-23.03349586726106,148.34769858974803,Unspecified,0,0,0
321105,Tolga - West (L),5.8012,1410,-17.204625514910564,145.45168181649964,Unspecified,0,0,0
321106,Tolga (L),2.6683,1277,-17.217238504211217,145.47742910129713,Unspecified,0,0,0
321107,Toorbul (L),3.0581,701,-27.04624752596466,153.10236070100663,Unspecified,0,0,3
321108,Wangan (L),0.5132,567,-17.57433238881085,146.0099167965932,Unspecified,0,1,1
321109,Winton (L),4.1332,856,-22.38505791316445,143.0428682987151,Unspecified,1,1,1
321110,Witta (L),5.5192,904,-26.707336085010272,152.81736709653208,Unspecified,0,0,2
321111,Wonga Beach (L),1.7613,860,-16.351146427950383,145.41364710275977,Unspecified,0,0,1
321112,Woorabinda (L),219.5151,1019,-24.13593451280873,149.44618329643973,Unspecified,0,0,0
321113,Yabulu (L),2.4375,651,-19.20083950025718,146.5886527271098,Unspecified,0,0,0
321114,Yarraman (L),2.9467,932,-26.842645349148537,151.98435381926103,Unspecified,0,0,0
322024,Cabbage Tree Point (L),0.552,500,-27.73657713957309,153.3555127303863,Unspecified,0,0,5
322036,Donnybrook (L) (Qld),0.5964,500,-27.00453762181493,153.06910280377622,Unspecified,0,0,3
401001,Adelaide,854.2792,1245011,-34.92029906049121,138.58865963537292,South Australia,18,40,50
412001,Gawler (SA),47.0853,28562,-34.5997189771124,138.7347997936416,Unspecified,2,2,4
412002,Mount Barker (SA),29.0637,21554,-35.07264497235566,138.8727617125441,Unspecified,1,1,4
412003,Mount Gambier,32.8804,26734,-37.82482582037592,140.78081481836855,Unspecified,2,2,2
412004,Whyalla,32.1004,20880,-33.036993232830234,137.5339442309728,Unspecified,3,3,3
413001,Crafers - Bridgewater,49.0674,15783,-35.010956322796225,138.72706186872054,Unspecified,2,3,43
413002,Murray Bridge,38.5251,17457,-35.120536048206446,139.2763465021399,Unspecified,2,2,3
413003,Port Augusta,31.7726,12788,-32.49534865675017,137.7925779824203,Unspecified,3,3,3
413004,Port Lincoln,40.3378,14404,-34.723437252854424,135.8699708067196,Unspecified,0,0,0
413005,Port Pirie,33.3497,13708,-33.2015908256267,138.0034284598642,Unspecified,1,1,1
413006,Victor Harbor,22.9972,16709,-35.54522981923392,138.6285543057652,Unspecified,4,4,5
414001,Goolwa,28.9155,8756,-35.50349883290097,138.80127272663364,Unspecified,1,1,5
414002,Nairne,4.639,5082,-35.03449191719761,138.91136693689523,Unspecified,0,2,4
414003,Naracoorte,16.3835,5223,-36.965285462521,140.73758686637015,Unspecified,1,1,1
414004,Nuriootpa,8.1761,6204,-34.46692555120981,138.99275738530275,Unspecified,3,4,4
414005,Strathalbyn,10.4779,6429,-35.25628108105286,138.89226169221857,Unspecified,1,1,2
415001,Angaston,12.8792,2184,-34.50321339633624,139.04533823435708,Unspecified,0,4,4
415002,Angle Vale,14.0604,4088,-34.63629297443397,138.65152836159467,Unspecified,0,2,5
415003,Balaklava,5.034,1956,-34.14957283402263,138.4177880600827,Unspecified,0,0,0
415004,Balhannah,4.3713,1660,-34.98682144163107,138.8370415348675,Unspecified,0,2,14
415005,Barmera,3.319,1895,-34.24853487688513,140.46905742591687,Unspecified,0,0,1
415006,Berri,12.0822,4143,-34.2770631449123,140.6077100982808,Unspecified,1,1,1
415007,Bordertown,8.4154,2840,-36.31161009065701,140.76827151690296,Unspecified,2,2,2
415008,Ceduna,13.4188,2290,-32.13288764543039,133.68447736487852,Unspecified,2,2,2
415009,Clare,12.6574,3379,-33.839632134278666,138.61376107970634,Unspecified,1,1,1
415010,Coober Pedy,30.5019,1437,-29.01119922770715,134.77419494458897,Unspecified,0,0,0
415011,Crystal Brook,4.5072,1322,-33.35378376832507,138.20577728239948,Unspecified,0,0,0
415012,Freeling,2.6202,2516,-34.45441185766474,138.81243549256212,Unspecified,0,0,6
415013,Hahndorf,2.8033,2313,-35.02641727645696,138.80818352460278,Unspecified,1,3,12
415014,Jamestown,5.1626,1389,-33.20400574872645,138.607857496497,Unspecified,0,0,0
415015,Kadina,11.5036,4666,-33.964413165448114,137.70670873194024,Unspecified,0,0,0
415016,Kapunda,4.9775,2633,-34.33722714634684,138.91593851082814,Unspecified,0,0,3
415017,Kingscote,6.089,1915,-35.66116428018354,137.6208918503749,Unspecified,1,1,3
415018,Kingston SE,9.2056,1637,-36.83556374691804,139.84858719618373,Unspecified,1,1,1
415019,Lewiston,14.005,2174,-34.60457831681648,138.5989422391848,Unspecified,0,0,5
415020,Lobethal,3.798,2174,-34.90034530419812,138.87988635573876,Unspecified,0,1,8
415021,Loxton,12.2171,3947,-34.44937200107053,140.57612500332854,Unspecified,0,0,1
415022,Lyndoch,2.1431,1883,-34.601035526072565,138.88083940410772,Unspecified,0,0,6
415023,Maitland (SA),3.2475,1079,-34.37447572305022,137.67181939583747,Unspecified,0,0,0
415024,Mannum,8.7182,2537,-34.90814857200321,139.30444766181293,Unspecified,0,0,0
415025,McLaren Flat,0.7598,1175,-35.20697572834767,138.58810917285612,Unspecified,1,1,1
415026,McLaren Vale,2.8936,3277,-35.217395903596895,138.54264084377513,Unspecified,1,1,1
415027,Meadows,1.7043,1126,-35.18067970940184,138.7586716874742,Unspecified,0,0,5
415028,Middleton,2.0175,1057,-35.51238090505513,138.71854634869345,Unspecified,0,3,5
415029,Millicent,19.8579,4760,-37.59524193051229,140.33586780153618,Unspecified,0,0,0
415030,Moonta,19.5779,4627,-34.06803202621072,137.5782679449769,Unspecified,0,0,0
415031,Mount Compass,2.2215,1232,-35.35286787869779,138.61004129644985,Unspecified,0,0,1
415032,Normanville,7.077,2262,-35.444554282676535,138.318100583971,Unspecified,2,2,2
415033,Paringa,2.0659,1026,-34.176457849979364,140.7857738807224,Unspecified,0,0,0
415034,Penola,3.5434,1376,-37.376869649662375,140.8332133510862,Unspecified,0,0,0
415035,Peterborough,5.6711,1428,-32.97203430492283,138.838606803001,Unspecified,0,0,0
415036,Port Broughton,2.5689,1116,-33.60188434500241,137.93311991520582,Unspecified,0,0,0
415037,Renmark,9.9875,4703,-34.17582098774856,140.747596978881,Unspecified,0,0,1
415038,Robe,9.1357,1156,-37.17142082263135,139.7674697895537,Unspecified,1,1,1
415039,Roxby Downs,3.8294,3671,-30.56392862983984,136.90030924914643,Unspecified,0,0,0
415040,Tailem Bend,5.8325,1412,-35.255497059550656,139.4576021343077,Unspecified,1,2,2
415041,Tanunda,8.9965,4394,-34.53127754450576,138.95874186859436,Unspecified,1,4,4
415042,Tumby Bay,2.19,1511,-34.38062486780908,136.10192462022405,Unspecified,0,0,0
415043,Two Wells,19.8649,2947,-34.61461947718213,138.52990369996962,Unspecified,0,0,3
415044,Virginia,3.3512,1687,-34.67131128569258,138.55629653390184,Unspecified,0,0,7
415045,Waikerie,2.5052,1670,-34.18286988319512,139.98448449880388,Unspecified,2,2,2
415046,Wallaroo,12.5291,4241,-33.92775751197688,137.63811071012358,Unspecified,0,0,0
415047,Williamstown,3.7899,2238,-34.668118039121445,138.88248208242754,Unspecified,0,0,3
415048,Willunga,2.7175,2300,-35.271690185866056,138.5542133821223,Unspecified,0,1,1
415049,Woodside,1.6528,1890,-34.95011434842412,138.87968812501555,Unspecified,1,1,6
421001,Ardrossan (L),2.5378,1188,-34.42239515124179,137.91627086223457,Unspecified,1,1,1
421002,Beachport (L),3.0889,530,-37.481657630505126,140.00837799625504,Unspecified,0,0,0
421003,Birdwood (L),1.4224,932,-34.81987292278851,138.9586055465292,Unspecified,0,0,1
421004,Burra (L),3.8046,922,-33.67413051333338,138.930692063452,Unspecified,0,0,0
421005,Cleve (L),5.8035,796,-33.70272246411566,136.49383468074382,Unspecified,0,0,0
421006,Cockatoo Valley (L),3.6939,688,-34.6144881525575,138.8350275532065,Unspecified,0,2,6
421007,Coffin Bay (L),4.1888,667,-34.625011238810515,135.46588146833693,Unspecified,0,0,0
421008,Cowell (L),5.3187,1004,-33.67996776701107,136.92144574410275,Unspecified,1,1,1
421009,Cummins (L),2.2621,748,-34.26837831296336,135.7270572589884,Unspecified,0,0,0
421010,Echunga (L),1.1525,630,-35.09737247884833,138.79237857237857,Unspecified,0,1,4
421011,Eudunda (L),2.9227,601,-34.172640417372115,139.08686436419077,Unspecified,0,0,0
421012,Gladstone (L) (SA),2.8826,623,-33.27062621052377,138.35344698700666,Unspecified,0,0,0
421013,Greenock (L),1.3173,1045,-34.45705000358915,138.9271704047487,Unspecified,1,4,4
421014,Gumeracha (L),1.0422,721,-34.823433185504165,138.88712678636438,Unspecified,0,0,4
421015,Hamley Bridge (L),0.8426,615,-34.35678538835154,138.68278989075495,Unspecified,0,0,0
421016,Houghton (L),3.0722,511,-34.82958341020348,138.75777551410064,Unspecified,0,3,37
421017,Kanmantoo (L),0.8093,511,-35.07406682288367,139.01166667498663,Unspecified,0,0,2
421018,Keith (L),7.2836,1140,-36.09873714793094,140.35732844168453,Unspecified,2,2,2
421019,Kimba (L),18.232,608,-33.13567607404343,136.41215668027613,Unspecified,3,3,3
421020,Lameroo (L),2.7742,567,-35.3265872309726,140.51514626308966,Unspecified,0,0,0
421021,Laura (L) (SA),1.452,522,-33.18344993995489,138.30147896607815,Unspecified,0,0,0
421022,Macclesfield (L),2.2961,977,-35.1738537725431,138.83582949948584,Unspecified,0,0,3
421023,Mallala (L),1.4964,887,-34.436782442809786,138.50421859034623,Unspecified,0,0,0
421024,Meningie (L),5.7809,860,-35.69079604982637,139.33788616888043,Unspecified,0,0,0
421025,Milang (L),2.44,831,-35.40428645506864,138.96841658593272,Unspecified,0,0,2
421026,Minlaton (L),3.08,759,-34.769199958673404,137.59635262393118,Unspecified,1,1,1
421027,Mount Pleasant (L),0.8233,618,-34.77541906741724,139.0467101851467,Unspecified,0,0,0
421028,One Tree Hill (L),0.7024,543,-34.71614667081301,138.7663873540858,Unspecified,0,2,6
421029,Orroroo (L),2.4622,516,-32.73128571795869,138.6168239127662,Unspecified,0,0,0
421030,Pinnaroo (L),4.101,575,-35.25973217098436,140.91106915127705,Unspecified,0,0,0
421031,Port MacDonnell (L),3.5985,660,-38.0509459551508,140.6925372154504,Unspecified,0,0,0
421032,Port Wakefield (L),2.1202,593,-34.183343690721046,138.15534193018706,Unspecified,0,0,0
421033,Pukatja (Ernabella) (L),8.4778,519,-26.282478061386296,132.13511314593225,Unspecified,0,0,0
421034,Quorn (L),20.9209,1150,-32.34521965877578,138.0445232911824,Unspecified,0,0,0
421035,Riverton (L),1.6317,795,-34.15834434480582,138.74586472493644,Unspecified,0,0,0
421036,Roseworthy (L),2.8365,987,-34.533332367567176,138.74570970540145,Unspecified,0,2,3
421037,Streaky Bay (L),2.9556,967,-32.79808299128263,134.2098544473019,Unspecified,2,2,2
421038,Uraidla - Summertown (L),3.9221,931,-34.9603937061552,138.74364275071423,Unspecified,1,6,44
421039,Wasleys (L),1.4108,661,-34.47425907000165,138.68356757942422,Unspecified,0,0,2
421040,Willyaroo (L),6.7063,661,-35.2807280366073,138.9122771843194,Unspecified,1,1,1
421041,Wudinna (L),3.1886,516,-33.04747100768985,135.45843743872933,Unspecified,1,1,1
421042,Yankalilla (L),3.3627,795,-35.45596403900898,138.34337437882212,Unspecified,2,2,2
421043,Yorketown (L),1.5157,667,-35.017861479849394,137.60732545360818,Unspecified,1,1,1
501001,Perth (WA),1720.3492,2043762,-32.03883324893168,115.87232759053676,Western Australia,14,45,104
511001,Bunbury,117.4,75196,-33.33902593252849,115.67565625611417,Unspecified,3,4,4
512001,Albany,88.4708,31128,-34.996894605879056,117.87733156737602,Unspecified,5,5,6
512002,Busselton,50.0409,27233,-33.663838987085875,115.32582503709558,Unspecified,3,3,3
512003,Geraldton,64.5403,32717,-28.770788904037843,114.64670867919013,Unspecified,3,4,4
512004,Kalgoorlie - Boulder,62.458,29068,-30.759313350086707,121.46064628046122,Unspecified,5,5,5
513001,Broome,50.0425,14660,-17.944717662884635,122.22299081455522,Unspecified,4,4,4
513002,Esperance,30.0675,10218,-33.84397480372244,121.89307277263504,Unspecified,6,6,6
513003,Karratha,118.8601,17013,-20.750100863417728,116.8143947535264,Unspecified,3,3,3
513004,Port Hedland,108.8326,15298,-20.359455377421213,118.62445893419184,Unspecified,1,2,2
513005,Yanchep,13.7668,11009,-31.542959350145285,115.64264399404956,Unspecified,2,4,7
514001,Collie,19.3391,7184,-33.356227718303536,116.16293602122956,Unspecified,1,1,2
514002,Dunsborough,17.835,7182,-33.61034811591654,115.0984894142788,Unspecified,1,1,2
514003,Margaret River,9.9123,7430,-33.95786528652892,115.074700685753,Unspecified,7,10,11
514004,Northam,26.7836,6679,-31.65256010196501,116.66544616205243,Unspecified,3,3,4
515001,Augusta,9.7432,1211,-34.325868047385974,115.15320284566988,Unspecified,1,1,1
515002,Binningup,4.1488,1271,-33.158294785080024,115.69085190889614,Unspecified,0,1,6
515003,Bridgetown,12.7149,2300,-33.95832830299182,116.11997597029226,Unspecified,1,1,1
515004,Bullsbrook,10.6174,2225,-31.666076562761056,116.02567100270348,Unspecified,0,0,8
515005,Capel,4.7239,2402,-33.553880304621,115.56395015351907,Unspecified,0,0,0
515006,Carnarvon,15.7882,4162,-24.8752527183141,113.66456922314762,Unspecified,5,5,5
515007,Cowaramup,3.9232,2119,-33.84999653698256,115.0972212199156,Unspecified,0,1,12
515008,Dampier,3.5535,1282,-20.664095253547355,116.71084359751232,Unspecified,0,0,3
515009,Denmark,12.4278,2944,-34.967657344587124,117.35297565484711,Unspecified,2,2,2
515010,Derby,22.3537,3009,-17.329199159185293,123.66213590245182,Unspecified,2,3,3
515011,Donnybrook (WA),5.8926,2786,-33.577046926204005,115.81994325132452,Unspecified,1,1,1
515012,Drummond Cove,1.8117,2219,-28.67465573127393,114.61553280736425,Unspecified,0,0,4
515013,Exmouth,12.3032,2806,-21.94826105094799,114.1268651843321,Unspecified,2,2,2
515014,Fitzroy Crossing,12.9429,1022,-18.19453655441826,125.5693965614545,Unspecified,3,3,3
515015,Harvey,6.2086,2797,-33.0800246350304,115.90339105065296,Unspecified,1,1,2
515016,Jurien Bay,9.6977,1600,-30.304722908311494,115.04745206313396,Unspecified,2,2,2
515017,Kalbarri,4.063,1270,-27.710252956618746,114.1703038416974,Unspecified,2,2,2
515018,Kambalda West,4.3165,1660,-31.21184217819468,121.6231474960266,Unspecified,0,0,0
515019,Katanning,15.8883,3641,-33.68310186764883,117.55061686514178,Unspecified,2,2,2
515020,Kununurra,6.861,4515,-15.77316082638504,128.74139927287175,Unspecified,2,2,2
515021,Little Grove,7.0593,1655,-35.075454060818615,117.86964693516536,Unspecified,0,5,6
515022,Manjimup,16.1522,4138,-34.24538994982253,116.15206862336524,Unspecified,2,2,2
515023,Merredin,13.2632,2384,-31.483170199447404,118.26631431662209,Unspecified,6,6,6
515024,Moora,9.7101,1591,-30.64066378111885,115.9988336155069,Unspecified,1,1,1
515025,Mount Barker (WA),6.7988,1898,-34.627895145083976,117.66511019471712,Unspecified,0,0,0
515026,Mundijong,8.3652,2284,-32.29317466230729,115.99278493512736,Unspecified,0,3,15
515027,Narrogin,9.493,3745,-32.93952290035353,117.17724186936589,Unspecified,4,4,4
515028,Newman,13.437,4239,-23.365680419449003,119.73694455677524,Unspecified,0,0,0
515029,Paraburdoo,3.2897,1319,-23.20130492431086,117.66580788565275,Unspecified,1,1,1
515030,Pinjarra,13.9426,3883,-32.62062660880855,115.86354317044632,Unspecified,0,1,8
515031,Port Denison - Dongara,12.0089,2841,-29.249213837857507,114.9291155031417,Unspecified,1,1,1
515032,Serpentine,7.6214,1485,-32.37412674843009,115.97148768310396,Unspecified,0,1,8
515033,Tom Price,4.0637,2874,-22.6885034256928,117.78895347164112,Unspecified,2,2,2
515034,Two Rocks,4.3761,2853,-31.498615065858708,115.59675190193454,Unspecified,0,2,7
515035,Wagin,9.9953,1311,-33.31011979365009,117.3495023083396,Unspecified,1,1,1
515036,Waroona,4.6771,2368,-32.84466709898886,115.9289313127537,Unspecified,0,0,0
515037,Wickham,2.6501,2016,-20.677867947238315,117.1404531813468,Unspecified,0,0,0
515038,York,17.4141,2399,-31.8734518635717,116.77742037486426,Unspecified,1,1,2
521001,Allanson (L),2.3629,515,-33.334343480302664,116.09110928291392,Unspecified,0,1,1
521002,Bakers Hill (L),12.7966,792,-31.74383733920817,116.45089330321322,Unspecified,0,0,0
521003,Beverley (L),6.8146,869,-32.10572771091001,116.9287651466778,Unspecified,2,2,2
521004,Bidyadanga (La Grange) (L),21.5363,593,-18.682329299360088,121.79060441132596,Unspecified,0,0,2
521005,Boddington - Ranford (L),4.7692,1129,-32.79907369697664,116.47780489334023,Unspecified,2,2,2
521006,Boyanup (L),3.3703,878,-33.48132415351136,115.7266290586391,Unspecified,0,0,4
521007,Boyup Brook (L),2.6316,540,-33.83468380984456,116.3877877356432,Unspecified,0,0,0
521008,Brookton (L),3.6598,532,-32.37308621098949,117.01238729471748,Unspecified,2,2,2
521009,Bruce Rock (L),2.3968,564,-31.878050003952573,118.14920095641004,Unspecified,0,0,0
521010,Brunswick (L),1.8521,807,-33.25694174380004,115.83626350166593,Unspecified,0,1,4
521011,Burekup (L),0.8823,591,-33.31282196704501,115.81466190792072,Unspecified,0,2,4
521012,Cape Burney (L),18.8666,538,-28.86792513083791,114.64894816274293,Unspecified,0,1,4
521013,Chidlow (L),2.4614,907,-31.858518637798014,116.26980164649976,Unspecified,0,0,3
521014,Coolgardie (L),6.6901,763,-30.955111346399843,121.16113345942163,Unspecified,1,1,1
521015,Corrigin (L),4.569,625,-32.329441710491444,117.87652845241344,Unspecified,1,1,1
521016,Cunderdin (L),3.7026,661,-31.656066625040328,117.238619969237,Unspecified,0,0,0
521017,Dalwallinu (L),4.0529,713,-30.27755760301192,116.65950069199806,Unspecified,2,2,2
521018,Dardanup (L),1.0077,545,-33.40003037580176,115.75666004124386,Unspecified,0,1,4
521019,Denham (L),1.6937,723,-25.92393211175266,113.53539353926838,Unspecified,2,3,3
521020,Gabbadah (L),65.3491,764,-31.2920123939871,115.5059894954338,Unspecified,0,1,1
521021,Gingin (L),9.4781,902,-31.34645897454257,115.9111685660634,Unspecified,2,2,4
521022,Gnarabup - Prevelly (L),4.5753,723,-33.986960078785735,114.99651946371908,Unspecified,0,7,10
521023,Gnowangerup (L),3.7885,568,-33.93800289210908,118.00343919254776,Unspecified,0,0,0
521024,Halls Creek (L),45.1727,1605,-18.224986404810643,127.67355652563138,Unspecified,3,3,3
521025,Hopetoun (L) (WA),4.0478,783,-33.940301638400044,120.12077664314174,Unspecified,0,0,0
521026,Jarrahdale (L),3.0072,782,-32.34643330617241,116.0571194633907,Unspecified,1,1,3
521027,Kambalda East (L),25.717,802,-31.20476039269636,121.65584789164672,Unspecified,0,0,0
521028,Kellerberrin (L),5.2697,798,-31.62846604634764,117.71643101943512,Unspecified,0,0,0
521029,Kojonup (L),6.5046,878,-33.83037854089916,117.1671109196064,Unspecified,3,3,3
521030,Lancelin (L),2.1818,746,-31.01878471100224,115.3322705122923,Unspecified,3,3,3
521031,Leonora (L),3.9076,567,-28.88155877911612,121.32095008686656,Unspecified,0,0,0
521032,Meekatharra (L),1.6174,675,-26.595301647151583,118.4970783962183,Unspecified,0,0,0
521033,Mount Magnet (L),2.8098,576,-28.059100962516016,117.8515020315059,Unspecified,0,0,0
521034,Muchea (L),5.7128,762,-31.58254968283021,115.96881225630716,Unspecified,1,1,3
521035,Nannup (L),2.1325,538,-33.985722154859204,115.76321266129872,Unspecified,1,1,1
521036,Norseman (L),6.069,555,-32.195962904125075,121.7765738148708,Unspecified,2,2,2
521037,North Pinjarra (L),1.0064,989,-32.60158268895686,115.89456107152206,Unspecified,0,1,8
521038,Northampton (L),6.7535,821,-28.35328007699625,114.63503654313747,Unspecified,2,2,2
521039,Ocean Beach (L),2.3995,822,-34.99748865489876,117.33118737509731,Unspecified,0,2,2
521040,Onslow (L),14.3362,813,-21.658772677676964,115.11273434289495,Unspecified,1,1,1
521041,Pannawonica (L),27.6085,685,-21.634852937722435,116.3356700006468,Unspecified,0,0,0
521042,Pemberton (L),3.128,617,-34.44858529597851,116.03699918031955,Unspecified,2,2,3
521043,Peppermint Grove Beach (L),1.0976,518,-33.52474372165795,115.50871395022676,Unspecified,0,0,0
521044,Pingelly (L),11.4302,722,-32.52837062925693,117.08500572055507,Unspecified,0,0,2
521045,Quairading (L),2.4964,582,-32.01059724551908,117.4001773952662,Unspecified,1,1,1
521046,Roebourne (L),4.946,700,-20.76847431687688,117.1450838882759,Unspecified,0,0,0
521047,Southern Cross (L),1.9618,523,-31.22729544050597,119.327143282672,Unspecified,2,2,2
521048,Toodyay (L),3.5888,953,-31.54839092885248,116.45801545147565,Unspecified,1,1,1
521049,Warburton (L) (WA),21.5057,511,-26.14440383169506,126.58732744941491,Unspecified,0,0,0
521050,Wongan Hills (L),4.1672,725,-30.895867094474635,116.7221567635424,Unspecified,2,2,2
521051,Wundowie (L),4.5508,868,-31.76852068909512,116.38687427569567,Unspecified,0,0,0
521052,Wyndham (L),2.2361,745,-15.485466032985771,128.12160061741594,Unspecified,0,0,0
603001,Hobart,237.263,197451,-42.84646751793181,147.34894483735863,Tasmania,7,9,13
611001,Launceston,95.1084,80943,-41.43981004532897,147.1371488332136,Unspecified,6,6,6
612001,Burnie - Somerset,31.3407,20267,-41.063964813641896,145.89628718452198,Unspecified,1,1,1
612002,Devonport,32.1367,24591,-41.19598758754313,146.34610325867638,Unspecified,3,5,5
613001,Ulverstone,17.0585,12723,-41.1587890281524,146.18223689970233,Unspecified,0,0,3
614001,Dodges Ferry - Lewisham,12.9489,5219,-42.85243781934245,147.63026670221004,Unspecified,0,0,1
614002,New Norfolk,10.6963,6153,-42.7751670453944,147.05484745619972,Unspecified,1,1,3
614003,Wynyard,13.7551,5387,-40.98979165572711,145.7276490329337,Unspecified,0,0,1
615001,Beaconsfield,3.4244,1093,-41.19970040572909,146.81523658766622,Unspecified,0,0,2
615002,Beauty Point,2.6981,1231,-41.1571609357816,146.81629067382022,Unspecified,0,1,2
615003,Bridport,4.0531,1371,-40.99874771510188,147.38887851491282,Unspecified,1,1,1
615004,Cygnet,2.3141,1057,-43.16093208741844,147.07713948250435,Unspecified,1,1,3
615005,Deloraine,4.7395,2631,-41.52570352376311,146.65654986452444,Unspecified,1,2,4
615006,Evandale,2.4143,1058,-41.56958222742039,147.24926935943324,Unspecified,0,0,6
615007,Exeter (Tas.),7.7513,1092,-41.30837433658145,146.95899223165867,Unspecified,1,1,2
615008,George Town,6.8297,4408,-41.10643698877311,146.82827766503144,Unspecified,1,1,1
615009,Hadspen,2.267,2337,-41.50451731469639,147.06590971824912,Unspecified,0,5,8
615010,Huonville,5.8075,2071,-43.02272821423156,147.0520507270527,Unspecified,1,1,3
615011,Latrobe,6.3474,4456,-41.23498769077964,146.4211932661647,Unspecified,2,5,6
615012,Legana,14.164,4252,-41.36092866073348,147.05828542699095,Unspecified,0,1,7
615013,Longford,6.3096,3711,-41.601110927749744,147.12223608169353,Unspecified,0,0,6
615014,Margate,2.9859,2572,-43.03231608634397,147.26674026945437,Unspecified,0,2,11
615015,Midway Point,2.1245,3384,-42.79415523419313,147.52931364399925,Unspecified,0,0,8
615016,Penguin,4.6726,3330,-41.11985883573238,146.06994836180596,Unspecified,0,0,1
615017,Perth (Tas.),2.9205,3233,-41.57127129280791,147.17042757065292,Unspecified,0,0,6
615018,Port Sorell,9.6083,3869,-41.148507838715545,146.53574148304816,Unspecified,0,0,5
615019,Primrose Sands,7.6896,1209,-42.88584739313102,147.669453104917,Unspecified,0,0,1
615020,Queenstown,3.0535,1772,-42.08607452879505,145.5506602578716,Unspecified,1,1,1
615021,Scottsdale,3.0266,1979,-41.15816100408571,147.51204750320997,Unspecified,1,1,2
615022,Sheffield,3.5662,1195,-41.38388042658016,146.33220867900278,Unspecified,1,1,3
615023,Smithton,9.0729,3282,-40.85043729477548,145.12037547204244,Unspecified,0,0,0
615024,Snug,2.5554,1843,-43.07218943214334,147.2602505851695,Unspecified,0,0,6
615025,Sorell,4.9075,3180,-42.78188974090999,147.5573659851109,Unspecified,0,0,1
615026,St Helens,4.6295,1573,-41.33433709323548,148.2584067658411,Unspecified,1,1,1
615027,Westbury,5.4904,1666,-41.52928943076421,146.84024751864914,Unspecified,2,2,3
621001,Bagdad (L),0.7504,501,-42.59985013842195,147.2192837911868,Unspecified,0,1,3
621002,Bicheno (L),3.0507,797,-41.8711260833464,148.29360809509603,Unspecified,2,2,2
